[
  {
    "id": "ChIJoYDLOsWkfDUR9X6uzZvDkbs",
    "name": "대박족발",
    "location": {
      "lat": 37.5491126,
      "lng": 127.07145500000001
    },
    "rating": null,
    "address": "서울특별시 광진구 군자동 362번지 1층 105호 동일흥업주식회사 주식회사"
  },
  {
    "id": "ChIJoYDLOsWkfDUREoVjl59t1NM",
    "name": "한국통닭",
    "location": {
      "lat": 37.5491126,
      "lng": 127.07145500000001
    },
    "rating": 1,
    "address": "서울특별시 광진구 군자동 362번지 1층 103호 동일흥업주식회사 주식회사"
  },
  {
    "id": "ChIJLyVnM8WkfDURgGFWaYWeKhM",
    "name": "세끼락건대점",
    "location": {
      "lat": 37.549120699999996,
      "lng": 127.07213850000001
    },
    "rating": null,
    "address": "서울특별시 광진구 군자동 362-17번지 1층"
  },
  {
    "id": "ChIJzUJfz9qkfDURW_Q6WeeJQBA",
    "name": "행복한그릇",
    "location": {
      "lat": 37.5488059,
      "lng": 127.07289829999999
    },
    "rating": 4.4,
    "address": "서울특별시 광진구 군자동 372-6"
  },
  {
    "id": "ChIJjZYrL8WkfDURkMOaViMIzIw",
    "name": "장안식당",
    "location": {
      "lat": 37.5487331,
      "lng": 127.07171090000001
    },
    "rating": null,
    "address": "서울특별시 광진구 군자동 361-13"
  },
  {
    "id": "ChIJtdc-PcWkfDUR3b4Lcrc0vzI",
    "name": "꽃",
    "location": {
      "lat": 37.549330499999996,
      "lng": 127.07098379999998
    },
    "rating": null,
    "address": "서울특별시 광진구 군자동 362-1번지 1층"
  },
  {
    "id": "ChIJ6S9IUAClfDURy1hfCFGYNNQ",
    "name": "명륜진사갈비 군자점",
    "location": {
      "lat": 37.5492076,
      "lng": 127.07109349999999
    },
    "rating": 5,
    "address": "서울특별시 광진구 군자로 70"
  },
  {
    "id": "ChIJC766XsClfDURnZJWqe-Niz8",
    "name": "미식반점 군자본점",
    "location": {
      "lat": 37.5492076,
      "lng": 127.07109349999999
    },
    "rating": 4,
    "address": "서울특별시 광진구 군자로 70 1 층"
  },
  {
    "id": "ChIJl0EhF8WkfDURisPxk20VAKo",
    "name": "예진이네",
    "location": {
      "lat": 37.5495367,
      "lng": 127.0706214
    },
    "rating": null,
    "address": "서울특별시 군자동 346-21번지 광진구 서울특별시 KR"
  },
  {
    "id": "ChIJl0EhF8WkfDURj02jzjqG2GQ",
    "name": "1982떡볶이앤김밥",
    "location": {
      "lat": 37.5495367,
      "lng": 127.0706214
    },
    "rating": 3.3,
    "address": "서울특별시 군자동 346-21번지 1층 광진구 서울특별시 KR"
  },
  {
    "id": "ChIJc-JfR8WkfDUR0GTWdAh5LOU",
    "name": "면당포화양점",
    "location": {
      "lat": 37.5497359,
      "lng": 127.07130809999998
    },
    "rating": null,
    "address": "서울특별시 광진구 군자동 363 13번지 1층 10호"
  },
  {
    "id": "ChIJ6exiGcWkfDUR5IsAe7WyI9E",
    "name": "송정닭집",
    "location": {
      "lat": 37.5492434,
      "lng": 127.0705594
    },
    "rating": null,
    "address": "서울특별시 군자동 359-1번지 광진구 서울특별시 KR"
  },
  {
    "id": "ChIJiWUXaQClfDURm8BD_lO4rqM",
    "name": "밀숲 세종대점",
    "location": {
      "lat": 37.5498895,
      "lng": 127.0710126
    },
    "rating": 4.5,
    "address": "서울특별시 광진구 군자동 363-14"
  },
  {
    "id": "ChIJUSl-L7ylfDURRjsu1MdiG5k",
    "name": "돈오리",
    "location": {
      "lat": 37.5502403,
      "lng": 127.07107219999999
    },
    "rating": 3.8,
    "address": "서울특별시 광진구 군자동 363-7"
  },
  {
    "id": "ChIJo_JLQ8WkfDUROeFRVszSVho",
    "name": "피자스쿨 세종대점",
    "location": {
      "lat": 37.5500666,
      "lng": 127.0710604
    },
    "rating": 4.4,
    "address": "서울특별시 광진구 군자로 76"
  },
  {
    "id": "ChIJY89rWZClfDURownXXHMbq1U",
    "name": "브라더한정식도시락 세종대점",
    "location": {
      "lat": 37.55000630000001,
      "lng": 127.07104969999999
    },
    "rating": null,
    "address": "서울특별시 광진구 군자로 76 브라더한정식도시락 세종대점 1층"
  },
  {
    "id": "ChIJieqMXMWkfDURj0_PcoCJ3L0",
    "name": "황금찹쌀꽈배기",
    "location": {
      "lat": 37.5504897,
      "lng": 127.07114600000001
    },
    "rating": null,
    "address": "서울특별시 광진구 군자동 번지 1층 363-4"
  },
  {
    "id": "ChIJw6n3QMWkfDURKV-Rg-NX9vs",
    "name": "옛뜰칼국수",
    "location": {
      "lat": 37.549921399999995,
      "lng": 127.071067
    },
    "rating": null,
    "address": "서울특별시 군자동 363-14번지 광진구 서울특별시 KR"
  },
  {
    "id": " ",
    "name": "기차길옆오막살이",
    "location": {
      "lat": 37.549921399999995,
      "lng": 127.071067
    },
    "rating": null,
    "address": "서울특별시 광진구 군자동 363-14"
  },
  {
    "id": "ChIJQY-eTQClfDURGQwkof01CvM",
    "name": "Pizza Burger",
    "location": {
      "lat": 37.5505886,
      "lng": 127.07113869999999
    },
    "rating": null,
    "address": "서울특별시 광진구 군자로 84-1"
  },
  {
    "id": "ChIJTQ_cCcOlfDURDyqepNAi5sg",
    "name": "도새기집",
    "location": {
      "lat": 37.550744099999996,
      "lng": 127.0712188
    },
    "rating": 4,
    "address": "서울특별시 광진구 군자로 86"
  },
  {
    "id": "ChIJXbLNXsWkfDURLMp3pwHAEXg",
    "name": "지어미유황오리쭈꾸미",
    "location": {
      "lat": 37.5507329,
      "lng": 127.0712109
    },
    "rating": null,
    "address": "서울특별시 광진구 군자동 363-2"
  },
  {
    "id": "ChIJRf3JXsWkfDURtn--DOm0jWw",
    "name": "순우리한우",
    "location": {
      "lat": 37.550709,
      "lng": 127.071201
    },
    "rating": null,
    "address": "서울특별시 군자동 363-2번지 1층 모웅남치과의원 광진구 서울특별시 KR"
  },
  {
    "id": "ChIJYQsOSNCkfDURDD4ozB0Jc8I",
    "name": "계절밥상",
    "location": {
      "lat": 37.549573099999996,
      "lng": 127.07370970000001
    },
    "rating": 3,
    "address": "서울특별시 세종대학교 군자동 98번지 6층 601동 606호 KR 서울특별시 광진구"
  },
  {
    "id": "ChIJYQsOSNCkfDURHOBwGy83_Co",
    "name": "석관동떡볶이 세종대점",
    "location": {
      "lat": 37.549506,
      "lng": 127.07522569999999
    },
    "rating": 3,
    "address": "서울특별시 광진구 능동로 209"
  },
  {
    "id": "ChIJEfuCf9qkfDURtr0oMLw2P6k",
    "name": "미스사이공 세종대점",
    "location": {
      "lat": 37.5498725,
      "lng": 127.0752562
    },
    "rating": 3.5,
    "address": "서울특별시 광진구 군자동"
  },
  {
    "id": "ChIJ3XjQQXSlfDUR34Ce9Ghi8-Q",
    "name": "세종대학교 푸드코트",
    "location": {
      "lat": 37.549483099999996,
      "lng": 127.0750716
    },
    "rating": 4.4,
    "address": "서울특별시 광진구 군자동 339-1"
  },
  {
    "id": "ChIJqeEU7s-kfDURPK1MWaD2hbI",
    "name": "마가을고기",
    "location": {
      "lat": 37.5515334,
      "lng": 127.0712971
    },
    "rating": 5,
    "address": "서울특별시 광진구 군자동 번지 1층 364-3"
  },
  {
    "id": "ChIJqeEU7s-kfDURa7ahGToR76o",
    "name": "오(VEN)돈구이",
    "location": {
      "lat": 37.5515334,
      "lng": 127.0712971
    },
    "rating": null,
    "address": "서울특별시 군자동 364-3번지 1층 광진구 서울특별시 KR"
  },
  {
    "id": "ChIJLwXq7s-kfDURBK4GDER6fUs",
    "name": "꼬꼬누리세종대점",
    "location": {
      "lat": 37.5516696,
      "lng": 127.07132709999999
    },
    "rating": null,
    "address": "서울특별시 광진구 군자동 번지 1층 364-1"
  },
  {
    "id": "ChIJLwXq7s-kfDURTCm8jCDQRRg",
    "name": "신주쿠우",
    "location": {
      "lat": 37.5516696,
      "lng": 127.07132709999999
    },
    "rating": null,
    "address": "서울특별시 광진구 군자동 364-1번지 1층"
  },
  {
    "id": "ChIJ1eFxY1ulfDUREZxm6ZIUm_s",
    "name": "중화제면소",
    "location": {
      "lat": 37.5522251,
      "lng": 127.07160879999999
    },
    "rating": null,
    "address": "서울특별시 광진구 군자로 104 1층"
  },
  {
    "id": "ChIJh5Y3w8-kfDUReYvpeyMUffQ",
    "name": "베트남쌀국수",
    "location": {
      "lat": 37.5521713,
      "lng": 127.07152229999998
    },
    "rating": 4.4,
    "address": "대한민국 서울특별시"
  },
  {
    "id": "ChIJh5Y3w8-kfDURTjpTFsW0FAg",
    "name": "만남포차",
    "location": {
      "lat": 37.5521713,
      "lng": 127.07152229999998
    },
    "rating": null,
    "address": "서울특별시 군자동 102-37번지 1층 광진구 서울특별시 KR"
  },
  {
    "id": "ChIJlcdTVO6lfDURXNqun9Vm5A4",
    "name": "Pho 126 Quan",
    "location": {
      "lat": 37.5521713,
      "lng": 127.07152229999998
    },
    "rating": 2,
    "address": "서울특별시 광진구 군자동 102-37"
  },
  {
    "id": "ChIJh5Y3w8-kfDURR_9flbnqL6Q",
    "name": "무한정수제돈까스 군자점",
    "location": {
      "lat": 37.5521713,
      "lng": 127.07152229999998
    },
    "rating": 4.2,
    "address": "서울특별시 광진구 군자동 102-37"
  },
  {
    "id": "ChIJG6cFnLSlfDURpUKQfs3pivE",
    "name": "베트남 쌀국수 Duy linh",
    "location": {
      "lat": 37.5522521,
      "lng": 127.07154709999999
    },
    "rating": null,
    "address": "서울특별시 광진구 군자로 102"
  },
  {
    "id": "ChIJO50mmrGlfDURw9c9YKz76eI",
    "name": "채움솥뚜껑생삼겹",
    "location": {
      "lat": 37.5523167,
      "lng": 127.07168349999999
    },
    "rating": 4,
    "address": "서울특별시 광진구 군자로 104-1"
  },
  {
    "id": "ChIJczF8VoelfDUR73RD05hpcbE",
    "name": "便宜能吃饱的面条火锅",
    "location": {
      "lat": 37.552422199999995,
      "lng": 127.071773
    },
    "rating": 4.8,
    "address": "서울특별시 광진구 군자동 102-29번지 1층"
  },
  {
    "id": "ChIJd6pD6s-kfDURsuojGbJHgk8",
    "name": "춘선만두",
    "location": {
      "lat": 37.5522992,
      "lng": 127.0713156
    },
    "rating": 4.5,
    "address": "서울특별시 광진구 군자로 101"
  },
  {
    "id": "ChIJcyxE6M-kfDURp7t5oPve7uk",
    "name": "장수마을고깃집",
    "location": {
      "lat": 37.5518976,
      "lng": 127.07144539999999
    },
    "rating": 3.9,
    "address": "대한민국 서울특별시"
  },
  {
    "id": "ChIJOy-U48ilfDURlHvbI3JVaIk",
    "name": "하얼빈만두",
    "location": {
      "lat": 37.5522529,
      "lng": 127.07125309999999
    },
    "rating": null,
    "address": "서울특별시 광진구 군자로 101"
  },
  {
    "id": "ChIJg5dN6M-kfDURb-LjlDlV1jc",
    "name": "현대프라자빌딩",
    "location": {
      "lat": 37.551899399999996,
      "lng": 127.07140529999998
    },
    "rating": null,
    "address": "서울특별시 광진구 군자동"
  },
  {
    "id": "ChIJMa_0xM-kfDUR9SLUCf0Nv48",
    "name": "또래끼리",
    "location": {
      "lat": 37.5523168,
      "lng": 127.07125239999999
    },
    "rating": 4.1,
    "address": "서울특별시 광진구 군자로 101"
  },
  {
    "id": "ChIJ3xQETPOlfDURO2CzC4CvzNk",
    "name": "명랑핫도그세종대점",
    "location": {
      "lat": 37.552536499999995,
      "lng": 127.0715619
    },
    "rating": 4,
    "address": "서울특별시 광진구 군자로 105-1"
  },
  {
    "id": "ChIJXWYs40OlfDURfj-5lgF0Wpw",
    "name": "수란주",
    "location": {
      "lat": 37.552536499999995,
      "lng": 127.0715619
    },
    "rating": null,
    "address": "서울특별시 광진구 군자로 105-1 1층"
  },
  {
    "id": "ChIJVz0G6s-kfDURUWMDfAKNJpk",
    "name": "고돼지(군자점) KODAEJI Gunja",
    "location": {
      "lat": 37.5520704,
      "lng": 127.07118519999999
    },
    "rating": null,
    "address": "서울특별시 광진구 군자동 100-17번지 1층"
  },
  {
    "id": "ChIJf-wv0M-kfDUR3jObh27q6u4",
    "name": "뉴욕떡볶이",
    "location": {
      "lat": 37.5526215,
      "lng": 127.07159709999999
    },
    "rating": 4.3,
    "address": "대한민국 서울특별시"
  },
  {
    "id": "ChIJrZxo0c-kfDURGz6qFpLSIVk",
    "name": "밀크밥버거",
    "location": {
      "lat": 37.5526275,
      "lng": 127.07165149999999
    },
    "rating": 4,
    "address": "대한민국 서울특별시"
  },
  {
    "id": "ChIJpUOM1s-kfDURWTE0D8eBSz4",
    "name": "본가다향오리훈제,감자탕,부대찌개,곱창",
    "location": {
      "lat": 37.5525781,
      "lng": 127.0720356
    },
    "rating": null,
    "address": "서울특별시 광진구 군자동"
  },
  {
    "id": "ChIJC6FQIkKlfDURg0obK2bustc",
    "name": "이삭토스트 세종대점",
    "location": {
      "lat": 37.5527237,
      "lng": 127.0717611
    },
    "rating": null,
    "address": "서울특별시 광진구 군자동 군자로 107-1"
  },
  {
    "id": "ChIJ-4b01M-kfDURex2xKzR0ufc",
    "name": "신생숯불갈비",
    "location": {
      "lat": 37.552816,
      "lng": 127.0719885
    },
    "rating": 3,
    "address": "서울특별시 광진구 군자동 102-1"
  },
  {
    "id": "ChIJg1Kl0c-kfDURwy5m81ztkAM",
    "name": "깡통닭",
    "location": {
      "lat": 37.552659999999996,
      "lng": 127.07168600000001
    },
    "rating": null,
    "address": "서울특별시 군자동 102-2번지 1층 광진구 서울특별시 KR"
  },
  {
    "id": "ChIJg1Kl0c-kfDURGtNUYjpDIu4",
    "name": "밀크",
    "location": {
      "lat": 37.552659999999996,
      "lng": 127.07168600000001
    },
    "rating": null,
    "address": "대한민국 서울특별시"
  },
  {
    "id": "ChIJv6_EKs6kfDURLyfPbDDQ1hA",
    "name": "석기시대 짜장마을",
    "location": {
      "lat": 37.552929299999995,
      "lng": 127.07214180000001
    },
    "rating": 4.3,
    "address": "서울특별시 광진구 군자로 111"
  },
  {
    "id": "ChIJz10MOs6kfDURwHP5pG38Qww",
    "name": "만족을잇다",
    "location": {
      "lat": 37.5537959,
      "lng": 127.07129619999999
    },
    "rating": null,
    "address": "서울특별시 광진구 군자동 125 212번지 178호"
  },
  {
    "id": "ChIJz10MOs6kfDUR_qPeSMcFguA",
    "name": "메르커",
    "location": {
      "lat": 37.5537959,
      "lng": 127.07129619999999
    },
    "rating": null,
    "address": "서울특별시 KR 서울특별시 광진구 군자동 125-212번지 1층 1동 15호"
  },
  {
    "id": "ChIJp5a9lXOlfDURxstUJhKwX0k",
    "name": "감천식당",
    "location": {
      "lat": 37.5519174,
      "lng": 127.0697735
    },
    "rating": 1,
    "address": "서울특별시 광진구 군자동 341-48"
  },
  {
    "id": "ChIJi3iyg8-kfDURRkOwIZTC6LE",
    "name": "남도밥상",
    "location": {
      "lat": 37.5519271,
      "lng": 127.0697445
    },
    "rating": null,
    "address": "서울특별시 군자동 341-44번지 자동 1층 광진구 서울특별시 KR"
  },
  {
    "id": "ChIJpTPRgM-kfDURCjDgjIlglz8",
    "name": "맛있는소리",
    "location": {
      "lat": 37.551541799999995,
      "lng": 127.06985519999999
    },
    "rating": null,
    "address": "서울특별시 광진구 군자동 번지 1층 344-2"
  },
  {
    "id": "ChIJpTPRgM-kfDURG4S7e8j1A4I",
    "name": "한끼",
    "location": {
      "lat": 37.551541799999995,
      "lng": 127.06985519999999
    },
    "rating": null,
    "address": "서울특별시 광진구 군자동 344-2번지 1층"
  },
  {
    "id": "ChIJa6URLWalfDUR_ujSZLakHc0",
    "name": "핫떡스",
    "location": {
      "lat": 37.5514714,
      "lng": 127.07006319999999
    },
    "rating": 4.6,
    "address": "서울특별시 광진구 군자동 344-4"
  },
  {
    "id": "ChIJTbarh8-kfDURArHwYnFGSXE",
    "name": "핫떡",
    "location": {
      "lat": 37.551441499999996,
      "lng": 127.07005660000002
    },
    "rating": null,
    "address": "서울특별시 군자동 344-4번지 1층 광진구 서울특별시 KR"
  },
  {
    "id": "ChIJo0vbK1KlfDURwcPoA-Ux3g8",
    "name": "곱창골",
    "location": {
      "lat": 37.5514255,
      "lng": 127.0701803
    },
    "rating": 5,
    "address": "서울특별시 광진구 군자동 동일로38길 13"
  },
  {
    "id": "ChIJ-S_bgc-kfDURVa1OWykOEwA",
    "name": "맛이 차이나",
    "location": {
      "lat": 37.5517938,
      "lng": 127.0695545
    },
    "rating": 4.5,
    "address": "서울특별시 광진구 동일로 224"
  },
  {
    "id": "ChIJi3iyg8-kfDURG42pv9HHFCc",
    "name": "미식가의1인찜닭1인닭도리",
    "location": {
      "lat": 37.5518589,
      "lng": 127.06972789999998
    },
    "rating": null,
    "address": "서울특별시 광진구 군자동 번지 1층 341-44 청운빌딩 공사"
  },
  {
    "id": "ChIJ9cTSYsWkfDURd7em46Qeb-Q",
    "name": "가평식당",
    "location": {
      "lat": 37.5511681,
      "lng": 127.070222
    },
    "rating": null,
    "address": "서울특별시 군자동 348-2번지 1층 광진구 서울특별시 KR"
  },
  {
    "id": "ChIJ9cTSYsWkfDURz_xcAP-yXhA",
    "name": "도구새추어탕",
    "location": {
      "lat": 37.5511681,
      "lng": 127.070222
    },
    "rating": null,
    "address": "서울특별시 광진구 군자동 348-2"
  },
  {
    "id": "ChIJW0HNpMWkfDURdqh1faJR2FI",
    "name": "엄마밥상",
    "location": {
      "lat": 37.5502258,
      "lng": 127.0688813
    },
    "rating": null,
    "address": "서울특별시 광진구 군자동 350-8번지 2층"
  },
  {
    "id": "ChIJT71LEMWkfDURUukw4NwbVNc",
    "name": "이천식당",
    "location": {
      "lat": 37.5496506,
      "lng": 127.0703178
    },
    "rating": null,
    "address": "서울특별시 군자동 346-20번지 광진구 서울특별시 KR"
  },
  {
    "id": "ChIJT71LEMWkfDURGq-xSq_qiPk",
    "name": "성민식당",
    "location": {
      "lat": 37.5496506,
      "lng": 127.0703178
    },
    "rating": 3.7,
    "address": "서울특별시 광진구 군자동 346-20번지"
  },
  {
    "id": "ChIJ9Q3dAMWkfDURgjzvQFo19eg",
    "name": "쿠시화이트",
    "location": {
      "lat": 37.5493951,
      "lng": 127.06968149999999
    },
    "rating": null,
    "address": "서울특별시 군자동 358-2번지 광진구 서울특별시 KR"
  },
  {
    "id": "ChIJ94edcwClfDURRh9UUW_OqAU",
    "name": "진진면옥",
    "location": {
      "lat": 37.549189399999996,
      "lng": 127.0691258
    },
    "rating": 4.5,
    "address": "서울특별시 광진구 군자동 357-3"
  },
  {
    "id": "ChIJ-7W7WcSkfDURUHa6lQExATU",
    "name": "진주품은활어",
    "location": {
      "lat": 37.548631799999995,
      "lng": 127.0693266
    },
    "rating": 5,
    "address": "서울특별시 군자동 357-8번지 1층 광진구 서울특별시 KR"
  },
  {
    "id": "ChIJ9wUq-8SkfDURd56hwwBIbJA",
    "name": "우쿠야군자점",
    "location": {
      "lat": 37.5485531,
      "lng": 127.07020009999998
    },
    "rating": null,
    "address": "서울특별시 광진구 동양 파라곤1단지 B101 호 제지 제주방 13호 KR 서울특별시 광진구 군자동 360-20번지 1층"
  },
  {
    "id": "ChIJ9wUq-8SkfDUR4tJDdFVv8KY",
    "name": "마니달오",
    "location": {
      "lat": 37.5485531,
      "lng": 127.07020009999998
    },
    "rating": 5,
    "address": "서울특별시 광진구 동양 360 20번지 1층 112호 KR 서울특별시 광진구 군자동"
  },
  {
    "id": "ChIJ9wUq-8SkfDURVgp7Vej-NMI",
    "name": "줄벼락",
    "location": {
      "lat": 37.5485531,
      "lng": 127.07020009999998
    },
    "rating": null,
    "address": "서울특별시 광진구 동양 파라곤1단지 101 동 주방 6호 KR 서울특별시 광진구 군자동 360-20번지 지하1층"
  },
  {
    "id": "ChIJ9wUq-8SkfDURgGGwFlf7tIE",
    "name": "홍콩식당건대점",
    "location": {
      "lat": 37.5485531,
      "lng": 127.07020009999998
    },
    "rating": null,
    "address": "서울특별시 광진구 동양 파라곤1단지 B101 호 제지 주방 13호 KR 서울특별시 광진구 군자동 360-20번지 1층"
  },
  {
    "id": "ChIJ9wUq-8SkfDURiVKn7cVS2NA",
    "name": "당선인치킨군자점",
    "location": {
      "lat": 37.5485531,
      "lng": 127.07020009999998
    },
    "rating": null,
    "address": "서울특별시 광진구 동양 파라곤1단지 B101 호 제지 제 주방 11호 KR 서울특별시 광진구 군자동 360-20번지 1층"
  },
  {
    "id": "ChIJ9wUq-8SkfDURPrWpc9lVOdk",
    "name": "퍼사이공군자점",
    "location": {
      "lat": 37.5485531,
      "lng": 127.07020009999998
    },
    "rating": null,
    "address": "서울특별시 광진구 동양 파라곤1단지 101 동 주방 20호 KR 서울특별시 광진구 군자동 360-20번지 제지1층"
  },
  {
    "id": "ChIJ9wUq-8SkfDUReD6L_vpl0hI",
    "name": "뉴욕쟁이한우국밥",
    "location": {
      "lat": 37.5485531,
      "lng": 127.07020009999998
    },
    "rating": null,
    "address": "서울특별시 광진구 동양 파라곤1단지 101 호 제지 제비주방 2호 KR 서울특별시 광진구 군자동 360-20번지 1층"
  },
  {
    "id": "ChIJ9wUq-8SkfDURQJ4pq4KjHs0",
    "name": "어오내닭볶이탕광진점",
    "location": {
      "lat": 37.5485531,
      "lng": 127.07020009999998
    },
    "rating": null,
    "address": "서울특별시 광진구 동양 파라곤1단지아파트 9호 KR 서울특별시 광진구 군자동 360-20번지 B1층 B101호 주방"
  },
  {
    "id": "ChIJ9wUq-8SkfDURbQ6rSSeWdhA",
    "name": "호향쭈꾸미",
    "location": {
      "lat": 37.5485531,
      "lng": 127.07020009999998
    },
    "rating": null,
    "address": "서울특별시 광진구 동양 360-20번지 파라곤1단지아파트 B110호 KR 서울특별시 광진구 군자동"
  },
  {
    "id": "ChIJ9wUq-8SkfDURtfGYtokBLL8",
    "name": "아웃백딜리버리건대입구점",
    "location": {
      "lat": 37.5485531,
      "lng": 127.07020009999998
    },
    "rating": null,
    "address": "서울특별시 광진구 동양 파라곤1단지아파트 KR 서울특별시 광진구 군자동 360-20번지 지하1층 101호 주방B호"
  },
  {
    "id": "ChIJ9wUq-8SkfDURqrhURfO4Nvg",
    "name": "다이찌",
    "location": {
      "lat": 37.5485531,
      "lng": 127.07020009999998
    },
    "rating": 3.5,
    "address": "서울특별시 광진구 군자동 360-20 군자동 360-20 광진구 서울특별시 KR 05003"
  },
  {
    "id": "ChIJ9wUq-8SkfDURmL8X5henRVw",
    "name": "(주)반장푸드반장떡볶이건대배달전문점",
    "location": {
      "lat": 37.5485531,
      "lng": 127.07020009999998
    },
    "rating": null,
    "address": "서울특별시 KR 서울특별시 광진구 군자동 360-20번지 광진동양파라곤1단지아파트 지하1층 101호 주방11호"
  },
  {
    "id": "ChIJ9wUq-8SkfDUR-Hzyu4_6FcY",
    "name": "구구포차",
    "location": {
      "lat": 37.5485531,
      "lng": 127.07020009999998
    },
    "rating": null,
    "address": "서울특별시 광진구 군자동 360-20번지 111호"
  },
  {
    "id": "ChIJ9wUq-8SkfDUR5Raez05MUiw",
    "name": "하안",
    "location": {
      "lat": 37.5485531,
      "lng": 127.07020009999998
    },
    "rating": null,
    "address": "서울특별시 군자동 360-20번지 광진도양파라곤1단지아파트 제지1층 B동 108호 광진구 서울특별시 KR"
  },
  {
    "id": "ChIJ9wUq-8SkfDURKVsg3PWQlJ4",
    "name": "파라곤만복",
    "location": {
      "lat": 37.5485531,
      "lng": 127.07020009999998
    },
    "rating": null,
    "address": "서울특별시 광진구 동양 360-20번지 파라곤1단지아파트 106호 KR 서울특별시 광진구 군자동"
  },
  {
    "id": "ChIJ9wUq-8SkfDUR_GmkbybTC1k",
    "name": "일품화계",
    "location": {
      "lat": 37.5485531,
      "lng": 127.07020009999998
    },
    "rating": null,
    "address": "서울특별시 광진구 군자동 360-20번지 동양파라곤1단지아파트"
  },
  {
    "id": "ChIJ9wUq-8SkfDURASxUTR549ek",
    "name": "철순이네김치찌개",
    "location": {
      "lat": 37.5485531,
      "lng": 127.07020009999998
    },
    "rating": 4.4,
    "address": "서울특별시 군자동 360-20번지 101동 111호 광진동양파라곤1단지아파트 광진구 서울특별시 KR"
  },
  {
    "id": "ChIJ9wUq-8SkfDUR5Di5gkmhbA8",
    "name": "호치킨",
    "location": {
      "lat": 37.5485531,
      "lng": 127.07020009999998
    },
    "rating": null,
    "address": "서울특별시 군자동 360-20번지 광진동양파라곤1단지아파트 108호 광진구 서울특별시 KR"
  },
  {
    "id": "ChIJh1uI-IulfDURV-HELVzZ0HM",
    "name": "본래순대 화양점",
    "location": {
      "lat": 37.5489837,
      "lng": 127.0705366
    },
    "rating": 4,
    "address": "서울특별시 광진구 군자동 군자로 63 본래순대 화양점 1층"
  },
  {
    "id": "ChIJL7nWHcWkfDURZdhzR-VtEgM",
    "name": "놀부옛날통닭&보쌈",
    "location": {
      "lat": 37.5489837,
      "lng": 127.0705366
    },
    "rating": null,
    "address": "서울특별시 군자동 360-23번지 2층 광진구 서울특별시 KR"
  },
  {
    "id": "ChIJ6QyFIe2lfDURvTGxl5wqsRQ",
    "name": "춘천골",
    "location": {
      "lat": 37.5488499,
      "lng": 127.07091469999999
    },
    "rating": 4.5,
    "address": "서울특별시 광진구 군자동 361-28"
  },
  {
    "id": "ChIJR0K6Ir6lfDURp9RMRLEXMEc",
    "name": "일품양평해장국 군자점",
    "location": {
      "lat": 37.5489737,
      "lng": 127.07088739999999
    },
    "rating": 4.1,
    "address": "서울특별시 광진구 군자로 70 3F"
  },
  {
    "id": "ChIJUewgkTKlfDURh65QpqlXK6o",
    "name": "춘천골닭갈비",
    "location": {
      "lat": 37.5488713,
      "lng": 127.070963
    },
    "rating": 4.5,
    "address": "서울특별시 광진구 군자로 70 나동 1층 105호"
  },
  {
    "id": "ChIJ09Bk-q6lfDURLPSut_JMucg",
    "name": "브네",
    "location": {
      "lat": 37.5488201,
      "lng": 127.07106080000001
    },
    "rating": 4.6,
    "address": "서울특별시 광진구 군자동 362-1 106호"
  },
  {
    "id": "ChIJsTCXbQClfDUR1Xuo81v2jAQ",
    "name": "화양리정육식당",
    "location": {
      "lat": 37.5491149,
      "lng": 127.0705476
    },
    "rating": 5,
    "address": "서울특별시 광진구 군자로 65"
  },
  {
    "id": "ChIJ51Y6PsSkfDURfU8l0OcWZQk",
    "name": "일우서유",
    "location": {
      "lat": 37.5486843,
      "lng": 127.06798829999998
    },
    "rating": null,
    "address": "서울특별시 군자동 355-5번지 지하층 층 광진구 서울특별시 KR"
  },
  {
    "id": "ChIJ51Y6PsSkfDURen4XnxfirkE",
    "name": "섬진강민물장어",
    "location": {
      "lat": 37.5486843,
      "lng": 127.06798829999998
    },
    "rating": 4.1,
    "address": "서울특별시 군자동 355-5번지 1층 군자동 에피소드1EPISODE 1호 광진구 서울특별시 KR"
  },
  {
    "id": "ChIJ2x9AFcSkfDUR-OHllgw97po",
    "name": "플레이팅",
    "location": {
      "lat": 37.5485214,
      "lng": 127.0681228
    },
    "rating": null,
    "address": "서울특별시 광진구 군자동 355 11번지"
  },
  {
    "id": "ChIJA4fsDcSkfDURbC_TUDVVwBI",
    "name": "청진동해장국",
    "location": {
      "lat": 37.5480251,
      "lng": 127.0679452
    },
    "rating": 3.8,
    "address": "서울특별시 광진구 화양동 21-49"
  },
  {
    "id": "ChIJJ_Cd3s2lfDURfOfYVGUcElM",
    "name": "명품돼지집부속전문",
    "location": {
      "lat": 37.5480357,
      "lng": 127.0680111
    },
    "rating": null,
    "address": "서울특별시 광진구 광나루로 344"
  },
  {
    "id": "ChIJPbSYDcSkfDURN5lHfg2Q4sM",
    "name": "강화밴뎅이",
    "location": {
      "lat": 37.5480357,
      "lng": 127.0680111
    },
    "rating": 3,
    "address": "서울특별시 광진구 화양동 광나루로 344"
  },
  {
    "id": "ChIJsZEiFMSkfDURoBfJeJzmrVE",
    "name": "본죽화양사거리점",
    "location": {
      "lat": 37.5484831,
      "lng": 127.06790570000001
    },
    "rating": 3.9,
    "address": "서울특별시 광진구 광나루로 341"
  },
  {
    "id": "ChIJCUB3bcSkfDURa6Kui-JufUk",
    "name": "아도러블",
    "location": {
      "lat": 37.547967299999996,
      "lng": 127.0683583
    },
    "rating": null,
    "address": "서울특별시 광진구 화양동 21-2번지 화양 1층 103호"
  },
  {
    "id": "ChIJCUB3bcSkfDUR5m7haRV7cY4",
    "name": "돈까스국수",
    "location": {
      "lat": 37.547967299999996,
      "lng": 127.0683583
    },
    "rating": null,
    "address": "서울특별시 화양동 21-2번지 1층 광진구 서울특별시 KR"
  },
  {
    "id": "ChIJU5nYbcSkfDURrYnzkBImfrY",
    "name": "엽기떡볶이 화양점",
    "location": {
      "lat": 37.5479276,
      "lng": 127.0683501
    },
    "rating": 2.3,
    "address": "서울특별시 광진구 화양동 21-2"
  },
  {
    "id": "ChIJRYiaasSkfDUR_ZziAQPvfgo",
    "name": "최대감네",
    "location": {
      "lat": 37.548477999999996,
      "lng": 127.0683349
    },
    "rating": 3.2,
    "address": "서울특별시 광진구 군자동 355-12"
  },
  {
    "id": "ChIJ52ObasSkfDURJmWox2JqiAA",
    "name": "명문한우가",
    "location": {
      "lat": 37.548477999999996,
      "lng": 127.0683349
    },
    "rating": 3.2,
    "address": "서울특별시 광진구 군자동 355-12"
  },
  {
    "id": "ChIJk1FXjTilfDURhQJwoRueYHk",
    "name": "마라입구",
    "location": {
      "lat": 37.547968999999995,
      "lng": 127.06887929999999
    },
    "rating": 5,
    "address": "서울특별시 광진구 광나루로 352 1층"
  },
  {
    "id": "ChIJ2w6gMxWlfDURoDDX51TamHw",
    "name": "망향비빔국수 화양점",
    "location": {
      "lat": 37.5479653,
      "lng": 127.0687849
    },
    "rating": 4,
    "address": "서울특별시 광진구 광나루로 352"
  },
  {
    "id": "ChIJ_3ITb8SkfDURyWV0RPbxFoY",
    "name": "먹보순대국앤설렁탕",
    "location": {
      "lat": 37.5479653,
      "lng": 127.0687849
    },
    "rating": null,
    "address": "서울특별시 광진구 화양동 21-1번지 1층"
  },
  {
    "id": "ChIJ_3ITb8SkfDUR8bP0HZhQWPk",
    "name": "다온퓨전회집",
    "location": {
      "lat": 37.5479653,
      "lng": 127.0687849
    },
    "rating": null,
    "address": "서울특별시 화양동 21-1번지 2층 광진구 서울특별시 KR"
  },
  {
    "id": "ChIJ_3ITb8SkfDURbhX6dwaBHhU",
    "name": "봉일천돼지부속숯불구이",
    "location": {
      "lat": 37.5479653,
      "lng": 127.0687849
    },
    "rating": 2.5,
    "address": "서울특별시 광진구 화양동 21-1"
  },
  {
    "id": "ChIJ8a10b8SkfDURhyGEOF1Hbak",
    "name": "다래회일식",
    "location": {
      "lat": 37.5479276,
      "lng": 127.06879449999998
    },
    "rating": null,
    "address": "서울특별시 광진구 화양동 21-1"
  },
  {
    "id": "ChIJCUB3bcSkfDURX1FOiP3csmI",
    "name": "벼락떡볶이",
    "location": {
      "lat": 37.5479938,
      "lng": 127.06855449999998
    },
    "rating": null,
    "address": "서울특별시 광진구 화양동 21-2"
  },
  {
    "id": "ChIJ0SVAPLmlfDUR3zKeERTNEDA",
    "name": "봉쉐프참치포차",
    "location": {
      "lat": 37.5483563,
      "lng": 127.0700135
    },
    "rating": 4.2,
    "address": "서울특별시 광진구 군자동 358-9"
  },
  {
    "id": "ChIJ9wUq-8SkfDURTNyYZ6eZVN8",
    "name": "동대문엽기떡볶이 군자점",
    "location": {
      "lat": 37.5482553,
      "lng": 127.0698747
    },
    "rating": 3.2,
    "address": "서울특별시 광진구 광나루로 361"
  },
  {
    "id": "ChIJ9wUq-8SkfDURSKW0357GJ-s",
    "name": "육회2990 군자점",
    "location": {
      "lat": 37.5483186,
      "lng": 127.07034110000001
    },
    "rating": 4,
    "address": "서울특별시 광진구 광나루로 361"
  },
  {
    "id": "ChIJSyjX0MSkfDURcDciqsdYnaY",
    "name": "세종김밥떡볶이",
    "location": {
      "lat": 37.548117999999995,
      "lng": 127.07170839999999
    },
    "rating": 4.2,
    "address": "서울특별시 군자동 361-28번지 1호 광진구 서울특별시 KR"
  },
  {
    "id": "ChIJwVFs2sSkfDURrBADUs-qpLc",
    "name": "빠오즈푸",
    "location": {
      "lat": 37.548078,
      "lng": 127.071529
    },
    "rating": 4.1,
    "address": "서울특별시 광진구 광나루로 373"
  },
  {
    "id": "ChIJwVFs2sSkfDURnyTGSSXzdro",
    "name": "세종원",
    "location": {
      "lat": 37.5480781,
      "lng": 127.07150339999998
    },
    "rating": 4.3,
    "address": "서울특별시 광진구 군자동 361-32"
  },
  {
    "id": "ChIJwVFs2sSkfDURS1mdjLntXPQ",
    "name": "천희밥상",
    "location": {
      "lat": 37.548136299999996,
      "lng": 127.0715056
    },
    "rating": null,
    "address": "서울특별시 광진구 군자동 361 32번지 2층"
  },
  {
    "id": "ChIJwVFs2sSkfDUR4teUdHBikRc",
    "name": "동경에서먹었던규동",
    "location": {
      "lat": 37.548136299999996,
      "lng": 127.0715056
    },
    "rating": 4.2,
    "address": "서울특별시 광진구 군자동 361-32번지 1층 103호"
  },
  {
    "id": "ChIJwVFs2sSkfDURGTj_xvSTIhM",
    "name": "모델라이져",
    "location": {
      "lat": 37.548136299999996,
      "lng": 127.0715056
    },
    "rating": null,
    "address": "서울특별시 군자동 361-32번지 1층 광진구 서울특별시 KR"
  },
  {
    "id": "ChIJefNvGAClfDURi60akebvaBY",
    "name": "육육면관",
    "location": {
      "lat": 37.548192799999995,
      "lng": 127.07155010000001
    },
    "rating": null,
    "address": "서울특별시 광진구 광나루로 373"
  },
  {
    "id": "ChIJM7nyTQClfDURZJV18nyMF-o",
    "name": "춘리마라탕 어린이대공원점",
    "location": {
      "lat": 37.5477001,
      "lng": 127.07146940000001
    },
    "rating": null,
    "address": "서울특별시 광진구 광나루로 374 2층 201호"
  },
  {
    "id": "ChIJ_Uin19qkfDURe_YjGwrmoTs",
    "name": "은혜즉석떡볶이",
    "location": {
      "lat": 37.5480525,
      "lng": 127.0723393
    },
    "rating": 4.1,
    "address": "서울특별시 광진구 광나루로 381-1 2층"
  },
  {
    "id": "ChIJDyTcS0SlfDURqZp_WYFgpmE",
    "name": "마가을고기 어린이대공원점",
    "location": {
      "lat": 37.5481191,
      "lng": 127.07233249999999
    },
    "rating": 5,
    "address": "서울특별시 광진구 광나루로 381-1"
  },
  {
    "id": "ChIJLSYh2XSlfDURuxObgoAu06Q",
    "name": "1984 묵은지",
    "location": {
      "lat": 37.5481519,
      "lng": 127.07246400000001
    },
    "rating": null,
    "address": "서울특별시 광진구 군자동 광나루로17길 13-3"
  },
  {
    "id": "ChIJjcR1KtukfDUR5WiwxjIf50c",
    "name": "카레와어두이",
    "location": {
      "lat": 37.5481519,
      "lng": 127.07246400000001
    },
    "rating": null,
    "address": "서울특별시 광진구 군자동 361-21번지 1층"
  },
  {
    "id": "ChIJsyJSxdqkfDURYppJ2cuppzU",
    "name": "스위트앤카츠",
    "location": {
      "lat": 37.5482425,
      "lng": 127.07280259999999
    },
    "rating": 3.8,
    "address": "서울특별시 광진구 광나루로17길 14"
  },
  {
    "id": "ChIJs5Jpsi-lfDUR0nXe6neQjJw",
    "name": "혼다라멘",
    "location": {
      "lat": 37.5480107,
      "lng": 127.0725743
    },
    "rating": 4.2,
    "address": "1층 3호, 361-23번지 군자동 광진구 서울특별시"
  },
  {
    "id": "ChIJSUHU0NqkfDURILG8HrSDths",
    "name": "무무앤",
    "location": {
      "lat": 37.548355099999995,
      "lng": 127.07274779999999
    },
    "rating": null,
    "address": "서울특별시 광진구 군자동 371-4번지 1층 5호"
  },
  {
    "id": "ChIJSUHU0NqkfDURZKC9Fy5zRDg",
    "name": "고을칼국수",
    "location": {
      "lat": 37.548355099999995,
      "lng": 127.07274779999999
    },
    "rating": 3.8,
    "address": "서울특별시 광진구 군자동 371-4번지 1층"
  },
  {
    "id": "ChIJSUHU0NqkfDURbgumsEC7Qq4",
    "name": "쩌니냥점빵",
    "location": {
      "lat": 37.548355099999995,
      "lng": 127.07274779999999
    },
    "rating": null,
    "address": "서울특별시 군자동 371-4번지 자동 광진구 서울특별시 KR"
  },
  {
    "id": "ChIJKy3pzyQZDTUR1-hrlBbGOno",
    "name": "알고",
    "location": {
      "lat": 37.5480765,
      "lng": 127.07284969999999
    },
    "rating": 4.5,
    "address": "서울특별시 광진구 군자동 373-8"
  },
  {
    "id": "ChIJSUHU0NqkfDURUGGnWZESLkc",
    "name": "스시붐",
    "location": {
      "lat": 37.548409899999996,
      "lng": 127.07276479999997
    },
    "rating": 4.4,
    "address": "서울특별시 광진구 군자동 광나루로17길 14-5"
  },
  {
    "id": "ChIJGy3O2dqkfDURXBQP_5OVtqM",
    "name": "미식일가",
    "location": {
      "lat": 37.548153,
      "lng": 127.0729449
    },
    "rating": 4.5,
    "address": "서울특별시 광진구 군자동 373-9"
  },
  {
    "id": "ChIJGy3O2dqkfDURwkP8bI1f1vA",
    "name": "홍생고기",
    "location": {
      "lat": 37.548153,
      "lng": 127.0729449
    },
    "rating": null,
    "address": "서울특별시 광진구 군자동"
  },
  {
    "id": "ChIJGy3O2dqkfDURMJthYZJrZ78",
    "name": "미친피자 건대본점",
    "location": {
      "lat": 37.5482122,
      "lng": 127.07297410000001
    },
    "rating": 5,
    "address": "서울특별시 광진구 광나루로19길 9 2층"
  },
  {
    "id": "ChIJU_r58NqkfDURzGP3XnW2e6U",
    "name": "사대분식",
    "location": {
      "lat": 37.5481268,
      "lng": 127.07442889999999
    },
    "rating": 4.3,
    "address": "서울특별시 광진구 능동로 197"
  },
  {
    "id": "ChIJX6xWPdukfDURJ47vn06eagw",
    "name": "KFC 세종대점",
    "location": {
      "lat": 37.547205999999996,
      "lng": 127.0735751
    },
    "rating": 3.8,
    "address": "서울특별시 광진구 광나루로 396"
  },
  {
    "id": "ChIJMwnpF9ukfDURk0eKkIGjdCI",
    "name": "일미정",
    "location": {
      "lat": 37.5470945,
      "lng": 127.07362739999999
    },
    "rating": null,
    "address": "서울특별시 광진구 군자동 228"
  },
  {
    "id": "ChIJ2ebEF9ukfDURzstvoiXxWdw",
    "name": "차돌폭식",
    "location": {
      "lat": 37.5470616,
      "lng": 127.07361940000001
    },
    "rating": null,
    "address": "서울특별시 광진구 화양동 228"
  },
  {
    "id": "ChIJabzaF9ukfDURKe80dnt6MAQ",
    "name": "큰집닭강정",
    "location": {
      "lat": 37.547058,
      "lng": 127.0736092
    },
    "rating": 3.7,
    "address": "서울특별시 광진구 화양동 228번지 2층"
  },
  {
    "id": "ChIJabzaF9ukfDURfJCW5-B0lz8",
    "name": "칠성구이식당",
    "location": {
      "lat": 37.547058,
      "lng": 127.0736092
    },
    "rating": null,
    "address": "서울특별시 광진구 화양동 228번지 1층"
  },
  {
    "id": "ChIJM7_eY8ylfDURtZ_6z0GSKs0",
    "name": "또또떡볶이",
    "location": {
      "lat": 37.547065499999995,
      "lng": 127.0736865
    },
    "rating": 5,
    "address": "서울특별시 광진구 화양동 227"
  },
  {
    "id": "ChIJK4fsSgClfDURK6KIr_8x72s",
    "name": "화양식당",
    "location": {
      "lat": 37.547060699999996,
      "lng": 127.07366309999999
    },
    "rating": null,
    "address": "서울특별시 광진구 화양동 111-124"
  },
  {
    "id": "ChIJrWrllUelfDUROITgR8S9KRI",
    "name": "본가왕뼈 어린이대공원역점",
    "location": {
      "lat": 37.547060699999996,
      "lng": 127.07338279999998
    },
    "rating": 4.1,
    "address": "서울특별시 광진구 화양동 226"
  },
  {
    "id": "ChIJ4fAxFtukfDURcOGpmDSw4B8",
    "name": "또또분식",
    "location": {
      "lat": 37.546996799999995,
      "lng": 127.07361669999999
    },
    "rating": 5,
    "address": "서울특별시 화양동 111-124번지 광진구 서울특별시 KR"
  },
  {
    "id": "ChIJsXsYGtukfDURzhXRfr4qLg0",
    "name": "(주)에스지푸드분식의신어린이대공원역",
    "location": {
      "lat": 37.547112899999995,
      "lng": 127.07394009999999
    },
    "rating": null,
    "address": "서울특별시 KR 서울특별시 광진구 화양동 164-1번지 지하 7호 선어린이대공원역 지1층 726동 1706"
  },
  {
    "id": "ChIJJR4bO9ukfDUR3lqio8Oeq7k",
    "name": "씨씨월드화양점",
    "location": {
      "lat": 37.547233299999995,
      "lng": 127.07309970000001
    },
    "rating": 2,
    "address": "서울특별시 광진구 화양동 111-49"
  },
  {
    "id": "ChIJ5_0EO9ukfDURN-PjvLM0jQw",
    "name": "필",
    "location": {
      "lat": 37.547233299999995,
      "lng": 127.07309970000001
    },
    "rating": null,
    "address": "서울특별시 광진구 화양동 212"
  },
  {
    "id": "ChIJEzwBO9ukfDURkJWvVFzVphw",
    "name": "맥도날드 어린이대공원점",
    "location": {
      "lat": 37.547222399999995,
      "lng": 127.07308540000001
    },
    "rating": 3.7,
    "address": "서울특별시 광진구 광나루로 392"
  },
  {
    "id": "ChIJo6JbPtukfDURKxZg3fuWbOI",
    "name": "왕십리정곱창",
    "location": {
      "lat": 37.5469126,
      "lng": 127.0735296
    },
    "rating": 4.3,
    "address": "서울특별시 광진구 화양동 111-127"
  },
  {
    "id": "ChIJNfwdNNukfDUR2AD3_T8HbxI",
    "name": "주막집",
    "location": {
      "lat": 37.547202999999996,
      "lng": 127.072564
    },
    "rating": null,
    "address": "서울특별시 광진구 화양동"
  },
  {
    "id": "ChIJ3TuqMdukfDURx6RTLaJb9II",
    "name": "리틀족발이",
    "location": {
      "lat": 37.547351,
      "lng": 127.07271610000001
    },
    "rating": null,
    "address": "서울특별시 화양동 202번지 1층 광진구 서울특별시 KR"
  },
  {
    "id": "ChIJO8ysMdukfDURRvtW3O44sXE",
    "name": "김밥나라",
    "location": {
      "lat": 37.547351,
      "lng": 127.07271610000001
    },
    "rating": 3,
    "address": "서울특별시 광진구 화양동 202"
  },
  {
    "id": "ChIJr6C1MNukfDURNtXLZS7qYJg",
    "name": "춘천골",
    "location": {
      "lat": 37.5471708,
      "lng": 127.07282349999998
    },
    "rating": null,
    "address": "서울특별시 광진구 화양동 207-3번지"
  },
  {
    "id": "ChIJByQqMtukfDUR2NXpYy2pwRg",
    "name": "야크",
    "location": {
      "lat": 37.5474192,
      "lng": 127.072559
    },
    "rating": null,
    "address": "서울특별시 광진구 화양동"
  },
  {
    "id": "ChIJDXLxNNukfDURnGL5D-f9RGg",
    "name": "콩달콩닭",
    "location": {
      "lat": 37.547233899999995,
      "lng": 127.07236899999998
    },
    "rating": null,
    "address": "서울특별시 화양동 111-107번지 1층 광진구 서울특별시 KR"
  },
  {
    "id": "ChIJbQDUVwClfDUR5ntQSelZZgU",
    "name": "건대우동집 어린이대공원점",
    "location": {
      "lat": 37.5473659,
      "lng": 127.07238930000001
    },
    "rating": null,
    "address": "서울특별시 광진구 광나루로 386"
  },
  {
    "id": "ChIJj-uEOtukfDURFUdzHlIzd34",
    "name": "봉채국수",
    "location": {
      "lat": 37.5472889,
      "lng": 127.072933
    },
    "rating": null,
    "address": "서울특별시 광진구 화양동 206"
  },
  {
    "id": "ChIJH9-bOtukfDURGUj8cH7uVk8",
    "name": "이공육",
    "location": {
      "lat": 37.5473212,
      "lng": 127.07292810000001
    },
    "rating": 5,
    "address": "서울특별시 화양동 206번지 1층 광진구 서울특별시 KR"
  },
  {
    "id": "ChIJH9-bOtukfDURYtVmay2WkZM",
    "name": "206숯불구이",
    "location": {
      "lat": 37.5473212,
      "lng": 127.07292810000001
    },
    "rating": 4.3,
    "address": "서울특별시 광진구 화양동 206"
  },
  {
    "id": "ChIJH9-bOtukfDURZ2ZNGRrs8ug",
    "name": "써브웨이 세종대점 SUBWAY",
    "location": {
      "lat": 37.5473212,
      "lng": 127.07292810000001
    },
    "rating": 4.1,
    "address": "서울특별시 광진구 화양동 광나루로 309"
  },
  {
    "id": "ChIJ76QEOtukfDURYn5P2yLDVIk",
    "name": "오봉교집",
    "location": {
      "lat": 37.5471393,
      "lng": 127.0729394
    },
    "rating": 4,
    "address": "대한민국 서울특별시"
  },
  {
    "id": "ChIJ76QEOtukfDURhZnZx4kWkw8",
    "name": "닭이만난새우화양점",
    "location": {
      "lat": 37.5471393,
      "lng": 127.0729394
    },
    "rating": null,
    "address": "서울특별시 화양동 210번지 1층 광진구 서울특별시 KR"
  },
  {
    "id": "ChIJU4ACOtukfDUR2XLbZ_KLPos",
    "name": "장수왕족발",
    "location": {
      "lat": 37.5471222,
      "lng": 127.072933
    },
    "rating": 4.7,
    "address": "서울특별시 광진구 화양동 210"
  },
  {
    "id": "ChIJOSyhNNukfDURVtlrxpu4Htg",
    "name": "돈주미고추장불고기 세종대점",
    "location": {
      "lat": 37.5473444,
      "lng": 127.07229419999999
    },
    "rating": null,
    "address": "서울특별시 광진구 화양동 193"
  },
  {
    "id": "ChIJS7agNNukfDURoPm8-MSQAm8",
    "name": "맘대로떡볶이",
    "location": {
      "lat": 37.5473504,
      "lng": 127.07229509999999
    },
    "rating": null,
    "address": "서울특별시 광진구 화양동 193번지 하이뷰오피스텔 2층 207호"
  },
  {
    "id": "ChIJHzaRkiClfDURQu_PSn7_7cA",
    "name": "샤브온당세종대점",
    "location": {
      "lat": 37.547397,
      "lng": 127.0723072
    },
    "rating": null,
    "address": "서울특별시 광진구 광나루로 386 1층"
  },
  {
    "id": "ChIJTd972YqlfDURDsFSoCpknsM",
    "name": "제주올레포차본점(숨비소리)",
    "location": {
      "lat": 37.546965,
      "lng": 127.07278079999999
    },
    "rating": 4.4,
    "address": "서울특별시 광진구 화양동 112-16"
  },
  {
    "id": "ChIJH2u4N9ukfDURehkejUCJ2gA",
    "name": "달호반점",
    "location": {
      "lat": 37.546965,
      "lng": 127.07278079999999
    },
    "rating": 4,
    "address": "서울특별시 광진구 화양동 112-16"
  },
  {
    "id": "ChIJ1b0aStukfDUROzZLRQgNmBs",
    "name": "지그재그",
    "location": {
      "lat": 37.5469414,
      "lng": 127.07252760000002
    },
    "rating": 4.2,
    "address": "서울특별시 화양동 111-27번지 화양동 지하1층 광진구 서울특별시 KR"
  },
  {
    "id": "ChIJlZhyycSkfDURjd6yqde4AlU",
    "name": "예와정성",
    "location": {
      "lat": 37.5474197,
      "lng": 127.0718167
    },
    "rating": 4,
    "address": "서울특별시 광진구 화양동 111 161번지 2층"
  },
  {
    "id": "ChIJYe9Bv8SkfDURdwp5oE27pPQ",
    "name": "깍뚝",
    "location": {
      "lat": 37.5474387,
      "lng": 127.07181639999997
    },
    "rating": 4.4,
    "address": "서울특별시 광진구 능동로19길 36"
  },
  {
    "id": "ChIJzVoQHgClfDURtxBjXWWRjeQ",
    "name": "내담 해물소갈비찜",
    "location": {
      "lat": 37.547284,
      "lng": 127.07175899999999
    },
    "rating": null,
    "address": "서울특별시 광진구 화양동 114-13"
  },
  {
    "id": "ChIJZXcfycSkfDUReuh0lTHOLZI",
    "name": "해송",
    "location": {
      "lat": 37.547483299999996,
      "lng": 127.0717387
    },
    "rating": 4,
    "address": "서울특별시 광진구 화양동 186"
  },
  {
    "id": "ChIJCwcRyMSkfDURBa7o_tHMxeM",
    "name": "참새방앗간",
    "location": {
      "lat": 37.547362199999995,
      "lng": 127.07161250000001
    },
    "rating": 5,
    "address": "서울특별시 화양동 111-61번지 1층 광진구 서울특별시 KR"
  },
  {
    "id": "ChIJJZoQAQClfDURt0ADQfYc9Ls",
    "name": "구스치킨",
    "location": {
      "lat": 37.5472138,
      "lng": 127.0718357
    },
    "rating": 4,
    "address": "서울특별시 광진구 화양동 능동로19길 35"
  },
  {
    "id": "ChIJBc-Jy8SkfDURf7tjS0-yESg",
    "name": "도네누삼겹살",
    "location": {
      "lat": 37.5474564,
      "lng": 127.0720082
    },
    "rating": null,
    "address": "서울특별시 광진구 화양동 111-102"
  },
  {
    "id": "ChIJA-4OaQClfDURUiYtGWBXZvA",
    "name": "신사골감자탕 어린이대공원점",
    "location": {
      "lat": 37.5475719,
      "lng": 127.071851
    },
    "rating": 4,
    "address": "서울특별시 광진구 광나루로 380"
  },
  {
    "id": "ChIJr_3eItSlfDURbgINNStr1iw",
    "name": "미태리 어린이대공원역점",
    "location": {
      "lat": 37.5475719,
      "lng": 127.071851
    },
    "rating": null,
    "address": "서울특별시 광진구 광나루로 380 1 층"
  },
  {
    "id": "ChIJ22iizsSkfDURXNIbLp8gWv4",
    "name": "바로키친",
    "location": {
      "lat": 37.5475795,
      "lng": 127.07186669999999
    },
    "rating": null,
    "address": "서울특별시 광진구 화양동 번지 2층 111-5 6호"
  },
  {
    "id": "ChIJ22iizsSkfDUR9x4UWTKvWJA",
    "name": "한식1번가",
    "location": {
      "lat": 37.5475795,
      "lng": 127.07186669999999
    },
    "rating": null,
    "address": "서울특별시 광진구 화양동 번지 2층 111-5 7호"
  },
  {
    "id": "ChIJ22iizsSkfDURGsFDbQRHrdo",
    "name": "밥도둑한끼뚝딱",
    "location": {
      "lat": 37.5475795,
      "lng": 127.07186669999999
    },
    "rating": null,
    "address": "서울특별시 광진구 화양동 번지 2층 111-5 1동 1호"
  },
  {
    "id": "ChIJ22iizsSkfDURN2KC0nYVqws",
    "name": "육회이야기",
    "location": {
      "lat": 37.5475795,
      "lng": 127.07186669999999
    },
    "rating": 4,
    "address": "대한민국 서울특별시"
  },
  {
    "id": "ChIJ7_2Ay8SkfDURqLHlaTDCeCc",
    "name": "등자감",
    "location": {
      "lat": 37.547435,
      "lng": 127.07205069999998
    },
    "rating": 4,
    "address": "서울특별시 광진구 화양동 111-102번지 1층"
  },
  {
    "id": "ChIJ7_2Ay8SkfDURaQzGelQXO54",
    "name": "돌아온왕십리곱창",
    "location": {
      "lat": 37.547435,
      "lng": 127.07205069999998
    },
    "rating": null,
    "address": "서울특별시 광진구 화양동"
  },
  {
    "id": "ChIJff3RcgClfDURK3WlYhNrZ-A",
    "name": "포시즌버거 건대점",
    "location": {
      "lat": 37.5472506,
      "lng": 127.07201489999999
    },
    "rating": null,
    "address": "서울특별시 광진구 화양동 111-260"
  },
  {
    "id": "ChIJqXmax8SkfDUR8qFos0pYkOk",
    "name": "이모네막썰어",
    "location": {
      "lat": 37.5474277,
      "lng": 127.0714332
    },
    "rating": 3.4,
    "address": "서울특별시 광진구 화양동 115-7"
  },
  {
    "id": "ChIJ227LucSkfDUR0yljTJC5G1U",
    "name": "벙커2",
    "location": {
      "lat": 37.547208999999995,
      "lng": 127.0714934
    },
    "rating": 5,
    "address": "서울특별시 화양동 114-5번지 1층 101호 광진구 서울특별시 KR"
  },
  {
    "id": "ChIJ227LucSkfDURjqW8X4aKl3U",
    "name": "고대서서갈비화양점",
    "location": {
      "lat": 37.547208999999995,
      "lng": 127.0714934
    },
    "rating": null,
    "address": "서울특별시 광진구 화양동 114-5번지 1층"
  },
  {
    "id": "ChIJnUZLiLilfDURdEMou39gZ_M",
    "name": "대포차",
    "location": {
      "lat": 37.547208999999995,
      "lng": 127.0714934
    },
    "rating": 5,
    "address": "서울특별시 광진구 화양동 114-5"
  },
  {
    "id": "ChIJlStUlcSkfDUR147a5UB0u3g",
    "name": "제주통도야지",
    "location": {
      "lat": 37.5476469,
      "lng": 127.0708044
    },
    "rating": null,
    "address": "서울특별시 광진구 화양동 116-2"
  },
  {
    "id": "ChIJZUzz6sSkfDURdfw5_ZxAHA8",
    "name": "행운의집",
    "location": {
      "lat": 37.547733400000006,
      "lng": 127.0708045
    },
    "rating": null,
    "address": "서울특별시 화양동 116-16번지 ㅣ층 광진구 서울특별시 KR"
  },
  {
    "id": "ChIJ4etllMSkfDURPF7-hnPUIF8",
    "name": "부뚜막곱창박사",
    "location": {
      "lat": 37.547503899999995,
      "lng": 127.0706127
    },
    "rating": null,
    "address": "서울특별시 화양동 119-5번지 광진구 서울특별시 KR"
  },
  {
    "id": "ChIJTYUS68SkfDURjod5TFO5A3o",
    "name": "옛날의정부부대찌개",
    "location": {
      "lat": 37.547774499999996,
      "lng": 127.0706455
    },
    "rating": 3.3,
    "address": "대한민국 서울특별시"
  },
  {
    "id": "ChIJTYUS68SkfDURGO1Ign3kVAY",
    "name": "홈치킨",
    "location": {
      "lat": 37.547774499999996,
      "lng": 127.0706455
    },
    "rating": null,
    "address": "서울특별시 광진구 화양동"
  },
  {
    "id": "ChIJ4etllMSkfDURDxvNTHJocJw",
    "name": "돼지집",
    "location": {
      "lat": 37.5474903,
      "lng": 127.070609
    },
    "rating": 5,
    "address": "서울특별시 광진구 화양동 번지 1층 119-5"
  },
  {
    "id": "ChIJs6dplMSkfDURW-XD4eAMnMs",
    "name": "이항아",
    "location": {
      "lat": 37.5474777,
      "lng": 127.07060239999998
    },
    "rating": 4,
    "address": "서울특별시 광진구 화양동 119-5"
  },
  {
    "id": "ChIJ4etllMSkfDURfrzuU2LuFiI",
    "name": "육회공작소세종대점",
    "location": {
      "lat": 37.5474835,
      "lng": 127.07053769999997
    },
    "rating": 4.8,
    "address": "서울특별시 광진구 군자로 50 육회공작소 세종대점 1층"
  },
  {
    "id": "ChIJM5QTg8SkfDURiw86G6msU-0",
    "name": "굽네치킨 화양점",
    "location": {
      "lat": 37.5473359,
      "lng": 127.07067919999999
    },
    "rating": 3.4,
    "address": "서울특별시 광진구 능동로19길 53"
  },
  {
    "id": "ChIJYe9Bv8SkfDURGWwFKI-UGo0",
    "name": "탕두번째",
    "location": {
      "lat": 37.547429699999995,
      "lng": 127.0711432
    },
    "rating": null,
    "address": "서울특별시 화양동 116-9번지 1층 광진구 서울특별시 KR"
  },
  {
    "id": "ChIJYe9Bv8SkfDURJcBqylPRo6s",
    "name": "그냥포차",
    "location": {
      "lat": 37.547429699999995,
      "lng": 127.0711432
    },
    "rating": 4,
    "address": "서울특별시 화양동 116-9번지 1층 광진구 서울특별시 KR"
  },
  {
    "id": "ChIJq3YIvsSkfDURsOHsdK-qRtY",
    "name": "영도광어두마리",
    "location": {
      "lat": 37.5472812,
      "lng": 127.0709323
    },
    "rating": null,
    "address": "서울특별시 화양동 121-9번지 1층 광진구 서울특별시 KR"
  },
  {
    "id": "ChIJCbg2kcSkfDUR54SBauXUuqw",
    "name": "형제닭발건대점",
    "location": {
      "lat": 37.5473356,
      "lng": 127.07052759999999
    },
    "rating": 1,
    "address": "서울특별시 광진구 화양동 번지 1층 132-6"
  },
  {
    "id": "ChIJCbg2kcSkfDUR2DlhJn1h_Ns",
    "name": "감자탕과닭한마리",
    "location": {
      "lat": 37.5473356,
      "lng": 127.07052759999999
    },
    "rating": 4.3,
    "address": "서울특별시 화양동 132-6번지 2층 광진구 서울특별시 KR"
  },
  {
    "id": "ChIJvZswkcSkfDUR9tnMVF66bfo",
    "name": "벌집삼겹살",
    "location": {
      "lat": 37.547316599999995,
      "lng": 127.0705166
    },
    "rating": 4,
    "address": "서울특별시 광진구 화양동 132-6"
  },
  {
    "id": "ChIJ4_ydxsSkfDURcGWq3JHRVfs",
    "name": "어사랑두번째이야기",
    "location": {
      "lat": 37.5477051,
      "lng": 127.07132990000001
    },
    "rating": null,
    "address": "서울특별시 광진구 화양동 111-70번지 1층"
  },
  {
    "id": "ChIJ4_ydxsSkfDUR4DmgrE_cV_M",
    "name": "랍스타바다",
    "location": {
      "lat": 37.5477051,
      "lng": 127.07132990000001
    },
    "rating": null,
    "address": "서울특별시 화양동 111-70번지 1층 광진구 서울특별시 KR"
  },
  {
    "id": "ChIJOz5Ej8SkfDURbRZHK_YVGcM",
    "name": "황소곱창부속일체",
    "location": {
      "lat": 37.5473995,
      "lng": 127.06994059999998
    },
    "rating": null,
    "address": "서울특별시 화양동 17-5번지 광진구 서울특별시 KR"
  },
  {
    "id": "ChIJPYXNjsSkfDUR6kp06S2HLss",
    "name": "경주네",
    "location": {
      "lat": 37.5475478,
      "lng": 127.06989580000001
    },
    "rating": null,
    "address": "서울특별시 광진구 화양동 18-24번지 1층"
  },
  {
    "id": "ChIJmbLxjsSkfDURxJ-2lHVXo1o",
    "name": "서래 세종대점",
    "location": {
      "lat": 37.547511,
      "lng": 127.07001659999999
    },
    "rating": null,
    "address": "서울특별시 광진구 화양동 18-25"
  },
  {
    "id": "ChIJDe9HAwClfDURQXl6LxqZzY0",
    "name": "단토리 화양점",
    "location": {
      "lat": 37.547528799999995,
      "lng": 127.07002720000001
    },
    "rating": null,
    "address": "서울특별시 광진구 동일로30길 49"
  },
  {
    "id": "ChIJmapDWgClfDUROLkdATW7ffE",
    "name": "육회바른연어 화양점",
    "location": {
      "lat": 37.547585999999995,
      "lng": 127.06990889999999
    },
    "rating": null,
    "address": "서울특별시 광진구 동일로30길 47 1층"
  },
  {
    "id": "ChIJe9wd9YSlfDUR3jpL5Qm3mss",
    "name": "우화등선",
    "location": {
      "lat": 37.5473634,
      "lng": 127.07016850000001
    },
    "rating": 4.6,
    "address": "서울특별시 광진구 동일로30길 52"
  },
  {
    "id": "ChIJGf04iMSkfDURL35xfiD2Ats",
    "name": "이모밥상",
    "location": {
      "lat": 37.5475628,
      "lng": 127.0696217
    },
    "rating": null,
    "address": "서울특별시 광진구 화양동 18-21번지 1층"
  },
  {
    "id": "ChIJGf04iMSkfDURD23eUmJtwM0",
    "name": "대구반야월막창화양점",
    "location": {
      "lat": 37.5475628,
      "lng": 127.0696217
    },
    "rating": 5,
    "address": "서울특별시 광진구 화양동"
  },
  {
    "id": "ChIJKcdqjMSkfDURORWS7Ayov5A",
    "name": "광진양곱창",
    "location": {
      "lat": 37.5477054,
      "lng": 127.0699611
    },
    "rating": null,
    "address": "서울특별시 광진구 화양동 18-5"
  },
  {
    "id": "ChIJ2z4AjsSkfDURxay_71eA2FA",
    "name": "화양동떡볶이소녀",
    "location": {
      "lat": 37.5475323,
      "lng": 127.07021399999999
    },
    "rating": null,
    "address": "서울특별시 광진구 화양동 번지 1층 18-26"
  },
  {
    "id": "ChIJ2z4AjsSkfDURbWxYJqHneN8",
    "name": "또봉이통닭",
    "location": {
      "lat": 37.5475323,
      "lng": 127.07021399999999
    },
    "rating": 4.2,
    "address": "서울특별시 화양동 18-26번지 1층 광진구 서울특별시 KR"
  },
  {
    "id": "ChIJJeerYAClfDUR5TucykAYfDU",
    "name": "푸라닭 화양점",
    "location": {
      "lat": 37.547567799999996,
      "lng": 127.07020929999999
    },
    "rating": null,
    "address": "서울특별시 광진구 동일로30길 51 1층"
  },
  {
    "id": "ChIJZYdgfLSlfDURv76xAnDX2TU",
    "name": "상구네솥뚜껑삼겹살 화양점",
    "location": {
      "lat": 37.5477645,
      "lng": 127.06996840000001
    },
    "rating": 4.9,
    "address": "서울특별시 광진구 광나루로 360 1층"
  },
  {
    "id": "ChIJr4h4i8SkfDURpwUrl2Ektkw",
    "name": "둘둘치킨 화양점",
    "location": {
      "lat": 37.5477887,
      "lng": 127.06985
    },
    "rating": 5,
    "address": "서울특별시 광진구 화양동 18-6"
  },
  {
    "id": "ChIJW7l4i8SkfDURgcHmrX343A4",
    "name": "회식일번지",
    "location": {
      "lat": 37.5478151,
      "lng": 127.0698585
    },
    "rating": null,
    "address": "서울특별시 화양동 18-6번지 광진구 서울특별시 KR"
  },
  {
    "id": "ChIJ7R5whMSkfDURP8l4wMTt3fc",
    "name": "남바완돈카츠건대점",
    "location": {
      "lat": 37.547072899999996,
      "lng": 127.07000459999999
    },
    "rating": null,
    "address": "서울특별시 아스하임 KR 서울특별시 광진구 화양동 17-16번지 지하2층 B201호"
  },
  {
    "id": "ChIJ7R5whMSkfDURH0AA4eJ-GZU",
    "name": "통오징어떡볶이",
    "location": {
      "lat": 37.547072899999996,
      "lng": 127.07000459999999
    },
    "rating": 2,
    "address": "대한민국 서울특별시"
  },
  {
    "id": "ChIJh3nPYsSkfDUR96ml5FxNDGg",
    "name": "맛있겠쭈",
    "location": {
      "lat": 37.5475685,
      "lng": 127.06943379999998
    },
    "rating": null,
    "address": "서울특별시 광진구 화양동 번지 1층 18-16"
  },
  {
    "id": "ChIJh3nPYsSkfDURhrnzvEFtP0E",
    "name": "영암순대국감자탕",
    "location": {
      "lat": 37.5475685,
      "lng": 127.06943379999998
    },
    "rating": null,
    "address": "서울특별시 광진구 화양동 18-16번지"
  },
  {
    "id": "ChIJh3nPYsSkfDUR6hKpYTiDuHg",
    "name": "록원양꼬치",
    "location": {
      "lat": 37.5475685,
      "lng": 127.06943379999998
    },
    "rating": null,
    "address": "서울특별시 화양동 18-16번지 광진구 서울특별시 KR"
  },
  {
    "id": "ChIJBTM1dwClfDURH1dAesMNGMk",
    "name": "카츠온주",
    "location": {
      "lat": 37.547657,
      "lng": 127.06942439999999
    },
    "rating": null,
    "address": "서울특별시 광진구 동일로30길 39"
  },
  {
    "id": "ChIJ4Rp46zelfDURYB_givNISbY",
    "name": "카츠온주",
    "location": {
      "lat": 37.547657,
      "lng": 127.06942439999999
    },
    "rating": 4.5,
    "address": "서울특별시 광진구 동일로30길 39"
  },
  {
    "id": "ChIJh3nPYsSkfDURpwpGMsuC5bA",
    "name": "송이족발세종대점",
    "location": {
      "lat": 37.547657,
      "lng": 127.06942439999999
    },
    "rating": null,
    "address": "서울특별시 광진구 화양동 18-16"
  },
  {
    "id": "ChIJh3nPYsSkfDURqcuXwRSviV0",
    "name": "영암식당",
    "location": {
      "lat": 37.5475685,
      "lng": 127.06943379999998
    },
    "rating": 3,
    "address": "서울특별시 광진구 화양동 18-16번지 영암순대국감자탕"
  },
  {
    "id": "ChIJ66J24DelfDURR0JdfJzOpIc",
    "name": "녹원양꼬치",
    "location": {
      "lat": 37.5475685,
      "lng": 127.06943379999998
    },
    "rating": 4.5,
    "address": "서울특별시 광진구 화양동 18-16"
  },
  {
    "id": "ChIJsXTnYsSkfDURTHMZ65xqUSc",
    "name": "웃거리왕족발",
    "location": {
      "lat": 37.5475685,
      "lng": 127.06943379999998
    },
    "rating": null,
    "address": "서울특별시 광진구 화양동 18-16"
  },
  {
    "id": "ChIJC4mrfcSkfDURCQXi2uXoG4g",
    "name": "티오디치킨",
    "location": {
      "lat": 37.5473871,
      "lng": 127.0693942
    },
    "rating": null,
    "address": "서울특별시 화양동 19-1번지 1층 광진구 서울특별시 KR"
  },
  {
    "id": "ChIJa1C9dsSkfDUR6cPrhJq0R8E",
    "name": "고기세상",
    "location": {
      "lat": 37.5474852,
      "lng": 127.06858609999999
    },
    "rating": null,
    "address": "서울특별시 화양동 20-1번지 1층 광진구 서울특별시 KR"
  },
  {
    "id": "ChIJa1C9dsSkfDURxjjDEp3AgDk",
    "name": "라면&덮밥",
    "location": {
      "lat": 37.5474852,
      "lng": 127.06858609999999
    },
    "rating": null,
    "address": "서울특별시 화양동 20-1번지 광진구 서울특별시 KR"
  },
  {
    "id": "ChIJa1C9dsSkfDURLG78YP1ySyU",
    "name": "왕십리닭내장탕",
    "location": {
      "lat": 37.5474852,
      "lng": 127.06858609999999
    },
    "rating": 4.5,
    "address": "서울특별시 화양동 20-1번지 1층 광진구 서울특별시 KR"
  },
  {
    "id": "ChIJvyabdsSkfDURuAIZVmUaOVY",
    "name": "본스치킨 화양점",
    "location": {
      "lat": 37.5474554,
      "lng": 127.0685723
    },
    "rating": 4,
    "address": "서울특별시 광진구 화양동 20-1"
  },
  {
    "id": "ChIJHwKlg-alfDURRcVXWUZ_82U",
    "name": "이든한끼",
    "location": {
      "lat": 37.547496599999995,
      "lng": 127.0686459
    },
    "rating": null,
    "address": "서울특별시 광진구 화양동 20-1"
  },
  {
    "id": "ChIJUcMG9cOkfDURXDSXZg5P6X4",
    "name": "원조마포숯불갈비",
    "location": {
      "lat": 37.5473487,
      "lng": 127.0680672
    },
    "rating": 3.9,
    "address": "서울특별시 광진구 화양동 20-3"
  },
  {
    "id": "ChIJKW5A-cOkfDURTRfnYZlmM2k",
    "name": "모다미육",
    "location": {
      "lat": 37.547675,
      "lng": 127.06791489999999
    },
    "rating": 4.7,
    "address": "서울특별시 광진구 동일로 178"
  },
  {
    "id": "ChIJp_Y1U6ClfDURC9UVypy9bfU",
    "name": "등촌샤브칼국수 건대화양점",
    "location": {
      "lat": 37.5475375,
      "lng": 127.0675612
    },
    "rating": 4.7,
    "address": "서울특별시 광진구 화양동 23-5"
  },
  {
    "id": "ChIJoymC8MOkfDUROQlHd7bPdmo",
    "name": "화원정",
    "location": {
      "lat": 37.5473107,
      "lng": 127.06758209999998
    },
    "rating": 4.5,
    "address": "서울특별시 광진구 동일로 172-8"
  },
  {
    "id": "ChIJmeHZxqelfDURv4tvnUmzcjk",
    "name": "마약낙곱새",
    "location": {
      "lat": 37.5473261,
      "lng": 127.06771549999999
    },
    "rating": null,
    "address": "서울특별시 광진구 화양동 23-11 1층"
  },
  {
    "id": "ChIJSQ_X9sOkfDURCcmEX5ZoRgk",
    "name": "팔팔반점",
    "location": {
      "lat": 37.5473261,
      "lng": 127.06771549999999
    },
    "rating": null,
    "address": "서울특별시 화양동 23-11번지 1층 광진구 서울특별시 KR"
  },
  {
    "id": "ChIJlXAb9sOkfDURK7DRG_k60qQ",
    "name": "명태마을",
    "location": {
      "lat": 37.547526,
      "lng": 127.06782050000001
    },
    "rating": null,
    "address": "서울특별시 화양동 23-1번지 1층 광진구 서울특별시 KR"
  },
  {
    "id": "ChIJKW5A-cOkfDURHYyZ_Z24fGY",
    "name": "전주콩나물국밥",
    "location": {
      "lat": 37.5475263,
      "lng": 127.0672773
    },
    "rating": null,
    "address": "서울특별시 화양동 23-7번지 1층 광진구 서울특별시 KR"
  },
  {
    "id": "ChIJKW5A-cOkfDUR11xhZwHylzk",
    "name": "실내포차",
    "location": {
      "lat": 37.5475263,
      "lng": 127.0672773
    },
    "rating": null,
    "address": "서울특별시 화양동 23-7번지 광진구 서울특별시 KR"
  },
  {
    "id": "ChIJKwxA-cOkfDURNZucKsYIoXw",
    "name": "왕언니네생고기",
    "location": {
      "lat": 37.5475263,
      "lng": 127.0672773
    },
    "rating": null,
    "address": "서울특별시 광진구 화양동 23-7"
  },
  {
    "id": "ChIJKW5A-cOkfDURxcmgPNEU4V0",
    "name": "명신오리앤생선구이",
    "location": {
      "lat": 37.5475624,
      "lng": 127.0672476
    },
    "rating": null,
    "address": "서울특별시 화양동 23-7번지 1층 광진구 서울특별시 KR"
  },
  {
    "id": "ChIJX0Dw8MOkfDURHGNLp0zR0bg",
    "name": "정은식당",
    "location": {
      "lat": 37.5472211,
      "lng": 127.06766019999999
    },
    "rating": 4,
    "address": "서울특별시 광진구 광나루로12길 10"
  },
  {
    "id": "ChIJb9taBsSkfDURlfjTRIRp1cI",
    "name": "엽기떡볶이/테러/팔당닭발오징어",
    "location": {
      "lat": 37.547885,
      "lng": 127.0674064
    },
    "rating": null,
    "address": "서울특별시 광진구 화양동"
  },
  {
    "id": "ChIJU1ZVP7ClfDURbCxSC6aVp9M",
    "name": "BHC치킨 화양점",
    "location": {
      "lat": 37.547148199999995,
      "lng": 127.06721189999998
    },
    "rating": 5,
    "address": "서울특별시 광진구 동일로 170-4"
  },
  {
    "id": "ChIJscAe48OkfDURklPVluoWKjM",
    "name": "보승회관 성수건대점",
    "location": {
      "lat": 37.547234599999996,
      "lng": 127.0671081
    },
    "rating": 4.4,
    "address": "서울특별시 광진구 동일로 170 1층"
  },
  {
    "id": "ChIJDS0y7sOkfDURQr2fT021X-Q",
    "name": "연정푸드짱닭",
    "location": {
      "lat": 37.5469612,
      "lng": 127.0677223
    },
    "rating": null,
    "address": "서울특별시 광진구 화양동 번지 1층 20-19"
  },
  {
    "id": "ChIJd-686MOkfDURY4qseL7ru5s",
    "name": "한솔식당",
    "location": {
      "lat": 37.546600399999996,
      "lng": 127.0677474
    },
    "rating": 5,
    "address": "대한민국 서울특별시"
  },
  {
    "id": "ChIJrX1_RP6lfDUREQ4AEy2GMI8",
    "name": "화양순대국감자탕",
    "location": {
      "lat": 37.5466836,
      "lng": 127.0701045
    },
    "rating": 4.1,
    "address": "서울특별시 광진구 화양동 군자로 39"
  },
  {
    "id": "ChIJq6hlfcOkfDURK03tkLaR2Hw",
    "name": "청년치킨",
    "location": {
      "lat": 37.5466836,
      "lng": 127.0701045
    },
    "rating": 4.2,
    "address": "서울특별시 광진구 화양동 17-34번지 1층"
  },
  {
    "id": "ChIJpYB3y8SkfDURjS4PZmuoDHE",
    "name": "도네누",
    "location": {
      "lat": 37.5469497,
      "lng": 127.0703519
    },
    "rating": 4,
    "address": "서울특별시 광진구 화양동 17-82"
  },
  {
    "id": "ChIJDV5tm8SkfDUR1YL0-0PHyQQ",
    "name": "꼼반장",
    "location": {
      "lat": 37.5469819,
      "lng": 127.070343
    },
    "rating": null,
    "address": "서울특별시 화양동 132-69번지 1층 광진구 서울특별시 KR"
  },
  {
    "id": "ChIJe6sublmlfDURaSG1Ut1AmVY",
    "name": "청춘물고기",
    "location": {
      "lat": 37.547095899999995,
      "lng": 127.07020120000001
    },
    "rating": 4.1,
    "address": "서울특별시 광진구 화양동 17-82"
  },
  {
    "id": "ChIJMQyaYsOkfDURfnXRP62pGyc",
    "name": "쿠치니",
    "location": {
      "lat": 37.546597,
      "lng": 127.0703274
    },
    "rating": null,
    "address": "서울특별시 광진구 화양동 번지 1층 132-65 1호"
  },
  {
    "id": "ChIJKVZnSdukfDURpb2NDwpyvsY",
    "name": "청해횟집",
    "location": {
      "lat": 37.546783399999995,
      "lng": 127.07249109999998
    },
    "rating": 4,
    "address": "서울특별시 광진구 화양동 111-35"
  },
  {
    "id": "ChIJ1b0aStukfDUREY9BamrYuaM",
    "name": "미생",
    "location": {
      "lat": 37.5469414,
      "lng": 127.07252760000002
    },
    "rating": null,
    "address": "서울특별시 화양동 111-27번지 1층 광진구 서울특별시 KR"
  },
  {
    "id": "ChIJ1b0aStukfDURSHkIMXCWOmg",
    "name": "하남돼지집 세종대점",
    "location": {
      "lat": 37.5469414,
      "lng": 127.07252760000002
    },
    "rating": 4.2,
    "address": "서울특별시 광진구 화양동 111-27"
  },
  {
    "id": "ChIJDTVXNdukfDUR9B9lkjx9Bj0",
    "name": "엉터리맥주집세종대점",
    "location": {
      "lat": 37.5470943,
      "lng": 127.0722666
    },
    "rating": null,
    "address": "서울특별시 화양동 111-36번지 광진구 서울특별시 KR"
  },
  {
    "id": "ChIJDTVXNdukfDURkWzlNhS3pkk",
    "name": "옹기종기",
    "location": {
      "lat": 37.5470943,
      "lng": 127.0722666
    },
    "rating": 4.3,
    "address": "서울특별시 광진구 화양동 111-36"
  },
  {
    "id": "ChIJDTVXNdukfDURWYp2Vh24azQ",
    "name": "우동연가 화양점",
    "location": {
      "lat": 37.5470943,
      "lng": 127.0722666
    },
    "rating": 4.2,
    "address": "서울특별시 광진구 화양동 능동로19길 27"
  },
  {
    "id": "ChIJUUA4UrClfDURshlJueoZ8hs",
    "name": "무이",
    "location": {
      "lat": 37.547120299999996,
      "lng": 127.07224950000001
    },
    "rating": 4.5,
    "address": "서울 광진구 능동로19길 27 2 3층"
  },
  {
    "id": "ChIJQU4_rW6lfDURSaZn6jI47zg",
    "name": "멘츠루 어린이대공원점",
    "location": {
      "lat": 37.5470319,
      "lng": 127.07203639999999
    },
    "rating": 4.5,
    "address": "서울특별시 광진구 광나루로 394"
  },
  {
    "id": "ChIJCxihUn-lfDUR2ZFVOWaQ5zc",
    "name": "채육식당 광진점",
    "location": {
      "lat": 37.546527,
      "lng": 127.0725452
    },
    "rating": 5,
    "address": "서울특별시 광진구 능동로17길 18 2 층"
  },
  {
    "id": "ChIJq-SStsSkfDUR3yyOKvV5IC0",
    "name": "도둑냉면",
    "location": {
      "lat": 37.547052099999995,
      "lng": 127.071819
    },
    "rating": null,
    "address": "서울특별시 광진구 코지웰 5호 KR 서울특별시 광진구 화양동 113-1번지 지하2층 204호"
  },
  {
    "id": "ChIJq-SStsSkfDURJLd5lE4xaIM",
    "name": "피자플래넷건대점",
    "location": {
      "lat": 37.547052099999995,
      "lng": 127.071819
    },
    "rating": null,
    "address": "서울특별시 광진구 화양동 번지 2층 113-1 코지웰 205호"
  },
  {
    "id": "ChIJq-SStsSkfDURRB7fh20sMro",
    "name": "파스타입니다건대점",
    "location": {
      "lat": 37.547052099999995,
      "lng": 127.071819
    },
    "rating": null,
    "address": "서울특별시 광진구 코지웰 KR 서울특별시 광진구 화양동 113-1번지 지하2층 B205동 16호"
  },
  {
    "id": "ChIJq-SStsSkfDURxvEZ5m-33-8",
    "name": "땡김분식건대점",
    "location": {
      "lat": 37.547052099999995,
      "lng": 127.071819
    },
    "rating": null,
    "address": "서울특별시 광진구 코지웰 KR 서울특별시 광진구 화양동 113-1번지 지하2층 비205동 13호"
  },
  {
    "id": "ChIJq-SStsSkfDURvoeW_1dm9v8",
    "name": "수비닭건대점",
    "location": {
      "lat": 37.547052099999995,
      "lng": 127.071819
    },
    "rating": null,
    "address": "서울특별시 광진구 화양동 번지 지하 113-1 코지웰 2층 21호"
  },
  {
    "id": "ChIJq-SStsSkfDURfdYPVaGdjXE",
    "name": "마라대국건대점",
    "location": {
      "lat": 37.547052099999995,
      "lng": 127.071819
    },
    "rating": null,
    "address": "서울특별시 광진구 화양동 번지 지하 113-1 코지웰 2층 203-8호"
  },
  {
    "id": "ChIJ7VlUONukfDURpbzY5VLHFNw",
    "name": "해적",
    "location": {
      "lat": 37.546923,
      "lng": 127.0730552
    },
    "rating": null,
    "address": "서울특별시 화양동 112-12번지 광진구 서울특별시 KR"
  },
  {
    "id": "ChIJAbu6QdukfDURaKDzC5eycWQ",
    "name": "고향산천원조숯불닭갈비",
    "location": {
      "lat": 37.546923,
      "lng": 127.0730552
    },
    "rating": 4.3,
    "address": "서울특별시 광진구 화양동 112-12"
  },
  {
    "id": "ChIJPY5dqFOlfDURYvFdqpLKBW4",
    "name": "청춘극장 쪽갈비",
    "location": {
      "lat": 37.547021199999996,
      "lng": 127.0730562
    },
    "rating": 4.3,
    "address": "서울특별시 광진구 화양동 111-110"
  },
  {
    "id": "ChIJ3YcyOtukfDURD-9_Ht8E0Lg",
    "name": "치킨잇카이",
    "location": {
      "lat": 37.5471141,
      "lng": 127.07305849999997
    },
    "rating": null,
    "address": "서울특별시 광진구 화양동 213번지"
  },
  {
    "id": "ChIJ3YcyOtukfDURI2He8bWtDe8",
    "name": "브릭스",
    "location": {
      "lat": 37.5471141,
      "lng": 127.07305849999997
    },
    "rating": null,
    "address": "서울특별시 화양동 213번지 광진구 서울특별시 KR"
  },
  {
    "id": "ChIJ14N8RtukfDUR94CMPbqDa9w",
    "name": "Woogi dining",
    "location": {
      "lat": 37.5465312,
      "lng": 127.07304839999999
    },
    "rating": null,
    "address": "7-10 능도로 19길, 광진구 서울특별시"
  },
  {
    "id": "ChIJG3x5RtukfDUR3AWC5AtYt2c",
    "name": "맑은",
    "location": {
      "lat": 37.5465237,
      "lng": 127.0730386
    },
    "rating": null,
    "address": "서울특별시 광진구 화양동 111-22번지 정익제이타워 1층 101호"
  },
  {
    "id": "ChIJRQOUOAClfDURg0F0vMuDUo8",
    "name": "쭈꾸미신",
    "location": {
      "lat": 37.5471487,
      "lng": 127.0730739
    },
    "rating": null,
    "address": "서울특별시 광진구 능동로19길 12"
  },
  {
    "id": "ChIJNQ4KtzWlfDURLvGg1snhWA8",
    "name": "비엣포",
    "location": {
      "lat": 37.5463367,
      "lng": 127.0733841
    },
    "rating": 4,
    "address": "서울특별시 광진구 화양동 111-119"
  },
  {
    "id": "ChIJSVNaoValfDURBb0rpmdin2Y",
    "name": "영화돈",
    "location": {
      "lat": 37.546301299999996,
      "lng": 127.07335749999999
    },
    "rating": 5,
    "address": "서울특별시 광진구 능동로 175 1층"
  },
  {
    "id": "ChIJcT-xQ9ukfDURyx0HghEf4sM",
    "name": "신대감의무한도전 화양리점",
    "location": {
      "lat": 37.546289,
      "lng": 127.07337700000001
    },
    "rating": null,
    "address": "서울특별시 광진구 화양동 111-119"
  },
  {
    "id": "ChIJcT-xQ9ukfDURYLO7BkrCoyI",
    "name": "마당족발",
    "location": {
      "lat": 37.546289,
      "lng": 127.07337749999999
    },
    "rating": 4.1,
    "address": "서울특별시 광진구 화양동 능동로 173 대한민국"
  },
  {
    "id": "ChIJ704MQNukfDURoUilodlWRpY",
    "name": "미팅",
    "location": {
      "lat": 37.5466003,
      "lng": 127.0735017
    },
    "rating": null,
    "address": "서울특별시 화양동 111-118번지 광진구 서울특별시 KR"
  },
  {
    "id": "ChIJ_wYunZClfDURWcZq8rnz2BU",
    "name": "카토카츠",
    "location": {
      "lat": 37.5461909,
      "lng": 127.07308529999999
    },
    "rating": 5,
    "address": "서울특별시 광진구 능동로17길 6"
  },
  {
    "id": "ChIJbbRhW9ukfDURKXCxAk1nUd4",
    "name": "피터팬노래하는소주방",
    "location": {
      "lat": 37.546066599999996,
      "lng": 127.07322990000002
    },
    "rating": 3.9,
    "address": "대한민국 서울특별시"
  },
  {
    "id": "ChIJWwIQYF-lfDURiB1gaYlcBPA",
    "name": "시홍쓰",
    "location": {
      "lat": 37.5460801,
      "lng": 127.07298939999998
    },
    "rating": 4.6,
    "address": "서울특별시 광진구 화양동 94-1"
  },
  {
    "id": "ChIJQxmzol6lfDURw7g25uBEtE0",
    "name": "비에뜨반미 건대점",
    "location": {
      "lat": 37.545933,
      "lng": 127.07315200000001
    },
    "rating": 4.2,
    "address": "서울특별시 광진구 화양동 94-4"
  },
  {
    "id": "ChIJISh9egClfDUR4GZmWT3i2_s",
    "name": "특별한호두와플",
    "location": {
      "lat": 37.5459179,
      "lng": 127.07320999999997
    },
    "rating": null,
    "address": "서울특별시 광진구 화양동 94-59"
  },
  {
    "id": "ChIJF7X9W9ukfDURLIhzkkaIQys",
    "name": "토모다찌",
    "location": {
      "lat": 37.545876299999996,
      "lng": 127.07320960000001
    },
    "rating": null,
    "address": "서울특별시 화양동 94-59번지 광진구 서울특별시 KR"
  },
  {
    "id": "ChIJ52SsEfqlfDURrpGYXz4fMus",
    "name": "STUFFED 스터프트",
    "location": {
      "lat": 37.5459509,
      "lng": 127.07325820000001
    },
    "rating": 5,
    "address": "서울특별시 광진구 화양동 능동로 169-1"
  },
  {
    "id": "ChIJwUHbFYalfDURbVOUaHFtTm4",
    "name": "파머스포케 건대점",
    "location": {
      "lat": 37.5457727,
      "lng": 127.073055
    },
    "rating": 4.8,
    "address": "서울특별시 광진구 능동로 167 1층"
  },
  {
    "id": "ChIJt1dBWNukfDURxc1if1eNAOo",
    "name": "수요일",
    "location": {
      "lat": 37.5457422,
      "lng": 127.0730053
    },
    "rating": null,
    "address": "서울특별시 화양동 94-7번지 2층 광진구 서울특별시 KR"
  },
  {
    "id": "ChIJqRrlMvClfDURJzs9RDSfgM4",
    "name": "Poke all day 포케&샐러드 건대점 Poke&salad",
    "location": {
      "lat": 37.5453441,
      "lng": 127.0729107
    },
    "rating": 5,
    "address": "서울특별시 광진구 능동로 163 2층"
  },
  {
    "id": "ChIJBTdHs9ykfDURBkDK5-p81t0",
    "name": "한명숙피자치킨",
    "location": {
      "lat": 37.5451167,
      "lng": 127.0722911
    },
    "rating": 5,
    "address": "서울특별시 화양동 51-6번지 1층 광진구 서울특별시 KR"
  },
  {
    "id": "ChIJdyFHptykfDURWUtOuK32GX0",
    "name": "진퉁라멘",
    "location": {
      "lat": 37.5454637,
      "lng": 127.07299409999999
    },
    "rating": null,
    "address": "서울특별시 광진구 화양동 94-60번지 서현빌딩 1층 101호"
  },
  {
    "id": "ChIJf-wPttykfDUR_TTT9VWS41w",
    "name": "시마다",
    "location": {
      "lat": 37.544686999999996,
      "lng": 127.072603
    },
    "rating": 3,
    "address": "서울특별시 광진구 화양동 2-11"
  },
  {
    "id": "ChIJtQ7rc-mlfDURM5cY6IFG1Hk",
    "name": "OURTH Yogurt",
    "location": {
      "lat": 37.5444375,
      "lng": 127.07243190000001
    },
    "rating": 4,
    "address": "서울특별시 광진구 능동로 153"
  },
  {
    "id": "ChIJ4WtjzdykfDURig49S5kderI",
    "name": "르빠니에블루",
    "location": {
      "lat": 37.544192699999996,
      "lng": 127.07235120000001
    },
    "rating": 4.5,
    "address": "서울특별시 광진구 화양동 2-45"
  },
  {
    "id": "ChIJmQVjaD-lfDURNQAk1uMLi9A",
    "name": "Nakano Ramen",
    "location": {
      "lat": 37.544353699999995,
      "lng": 127.07182759999999
    },
    "rating": 3.9,
    "address": "서울특별시 광진구 군자로2길 4"
  },
  {
    "id": "ChIJL1UGScOkfDUR84gmxcVDiVU",
    "name": "본가다향오리훈제,감자탕,부대찌개,곱창",
    "location": {
      "lat": 37.545108899999995,
      "lng": 127.07175929999998
    },
    "rating": null,
    "address": "서울특별시 광진구 화양동"
  },
  {
    "id": "ChIJj_cAScOkfDURdQaZd4WNAiY",
    "name": "피자랜드",
    "location": {
      "lat": 37.545108899999995,
      "lng": 127.07175929999998
    },
    "rating": null,
    "address": "서울특별시 광진구 화양동 1-1"
  },
  {
    "id": "ChIJg5zT-xqlfDURda7QliuUd24",
    "name": "오사이초밥",
    "location": {
      "lat": 37.544633,
      "lng": 127.07150270000001
    },
    "rating": 4.6,
    "address": "서울특별시 화양동 1-16 1층 KR 서울특별시 광진구 군자로 14"
  },
  {
    "id": "ChIJA9ZuobelfDURrNzGtzrGvEQ",
    "name": "SUL설",
    "location": {
      "lat": 37.5448038,
      "lng": 127.0711654
    },
    "rating": null,
    "address": "서울특별시 광진구 군자로3길 1 1층 SUL"
  },
  {
    "id": "ChIJPxKBIxalfDURL40X5wHhBUw",
    "name": "멘쇼(츠케멘 전문점)",
    "location": {
      "lat": 37.544408499999996,
      "lng": 127.0716852
    },
    "rating": 4.4,
    "address": "서울특별시 광진구 화양동 1-10"
  },
  {
    "id": "ChIJsQXAlcSkfDURORYJY6YgJEE",
    "name": "장충동왕족발보쌈",
    "location": {
      "lat": 37.5452656,
      "lng": 127.07117570000001
    },
    "rating": null,
    "address": "서울특별시 광진구 화양동 63-2"
  },
  {
    "id": "ChIJg2aJgI2lfDURa70Y_HIWxGg",
    "name": "화양동 백반집",
    "location": {
      "lat": 37.545373999999995,
      "lng": 127.070797
    },
    "rating": 5,
    "address": "서울특별시 광진구 화양동 15-2"
  },
  {
    "id": "ChIJseQVasOkfDURdL7Kmu542DU",
    "name": "에그마카슈 건대점",
    "location": {
      "lat": 37.545535799999996,
      "lng": 127.070808
    },
    "rating": null,
    "address": "대한민국 서울특별시"
  },
  {
    "id": "ChIJJ1VpFcOkfDURCVtMR8jlat0",
    "name": "게눈감추듯",
    "location": {
      "lat": 37.5452592,
      "lng": 127.07083010000001
    },
    "rating": null,
    "address": "서울특별시 광진구 화양동 15-5"
  },
  {
    "id": "ChIJJ1VpFcOkfDURntIpYvg6Jr0",
    "name": "정성이가득찬집밥건대점",
    "location": {
      "lat": 37.5452061,
      "lng": 127.0708268
    },
    "rating": null,
    "address": "서울특별시 광진구 화양동 번지 102호 15-5"
  },
  {
    "id": "ChIJJ1VpFcOkfDUR2LtsbDg9Hdw",
    "name": "은숙이네김치찌개",
    "location": {
      "lat": 37.5452061,
      "lng": 127.0708268
    },
    "rating": null,
    "address": "서울특별시 광진구 화양동 15-5번지 1층"
  },
  {
    "id": "ChIJt3jrHQ-lfDURCqAh8aXr30k",
    "name": "하루마끼",
    "location": {
      "lat": 37.545594699999995,
      "lng": 127.07077419999999
    },
    "rating": 3,
    "address": "서울특별시 광진구 군자로 26"
  },
  {
    "id": "ChIJ40vSP8OkfDUR73Q9rKn5T9g",
    "name": "재희네식당",
    "location": {
      "lat": 37.5451297,
      "lng": 127.0709218
    },
    "rating": 4.5,
    "address": "서울특별시 광진구 화양동 군자로 21"
  },
  {
    "id": "ChIJC1fUFMOkfDURDd9K25xCKnI",
    "name": "연이네식당",
    "location": {
      "lat": 37.5453295,
      "lng": 127.0707087
    },
    "rating": 5,
    "address": "서울특별시 화양동 15-2번지 광진구 서울특별시 KR"
  },
  {
    "id": "ChIJBfUrPsOkfDURPkq9YmVtidI",
    "name": "화양156",
    "location": {
      "lat": 37.545107699999996,
      "lng": 127.0709095
    },
    "rating": null,
    "address": "서울특별시 화양동 15-6번지 1층 광진구 서울특별시 KR"
  },
  {
    "id": "ChIJYT2bfgClfDURWQBeqCsVgDI",
    "name": "한사바리",
    "location": {
      "lat": 37.5458432,
      "lng": 127.07043559999998
    },
    "rating": null,
    "address": "서울특별시 광진구 군자로 29"
  },
  {
    "id": "ChIJDbNCbsOkfDURCFGeQNSXGao",
    "name": "지짐이",
    "location": {
      "lat": 37.5458358,
      "lng": 127.0703437
    },
    "rating": null,
    "address": "서울특별시 화양동 16-86번지 1층 광진구 서울특별시 KR"
  },
  {
    "id": "ChIJswvob8OkfDURJHBOJ1j9dv4",
    "name": "우복떡볶이",
    "location": {
      "lat": 37.5460108,
      "lng": 127.0702611
    },
    "rating": null,
    "address": "서울특별시 화양동 16-90번지 1층 3호 광진구 서울특별시 KR"
  },
  {
    "id": "ChIJf3fuW0ulfDURC-6EfpdL6SI",
    "name": "은하동",
    "location": {
      "lat": 37.546376099999996,
      "lng": 127.07017510000001
    },
    "rating": 5,
    "address": "서울특별시 광진구 군자로 35 1층"
  },
  {
    "id": "ChIJXXEkY8OkfDURdMRqb4mBnFM",
    "name": "바다생각",
    "location": {
      "lat": 37.5464704,
      "lng": 127.07027129999997
    },
    "rating": 4.6,
    "address": "서울특별시 광진구 화양동 132-66"
  },
  {
    "id": "ChIJY5VDe8OkfDURgSsNe6v8tuk",
    "name": "스마트식당",
    "location": {
      "lat": 37.5463586,
      "lng": 127.07015039999999
    },
    "rating": null,
    "address": "서울특별시 광진구 화양동 번지 1층 16-1"
  },
  {
    "id": "ChIJY5VDe8OkfDURvMzGhM_S900",
    "name": "패밀리푸드",
    "location": {
      "lat": 37.5463586,
      "lng": 127.07015039999999
    },
    "rating": null,
    "address": "서울특별시 광진구 화양동 번지 1층 16-1"
  },
  {
    "id": "ChIJY5VDe8OkfDURiZqz1WeRzY0",
    "name": "와이왓",
    "location": {
      "lat": 37.5463586,
      "lng": 127.07015039999999
    },
    "rating": 5,
    "address": "서울특별시 광진구 화양동 16-1번지 104호"
  },
  {
    "id": "ChIJY5VDe8OkfDURgbSLBevvoX8",
    "name": "최혜경손칼국수",
    "location": {
      "lat": 37.5463586,
      "lng": 127.07015039999999
    },
    "rating": null,
    "address": "서울특별시 화양동 16-1번지 1층 광진구 서울특별시 KR"
  },
  {
    "id": "ChIJY5VDe8OkfDURFV3vKEGXR0o",
    "name": "양곰탕",
    "location": {
      "lat": 37.5463586,
      "lng": 127.07015039999999
    },
    "rating": null,
    "address": "서울특별시 화양동 16-1번지 1층 광진구 서울특별시 KR"
  },
  {
    "id": "ChIJY5VDe8OkfDUR2EjJV7Yd8VA",
    "name": "배달삼겹직구삼건대점",
    "location": {
      "lat": 37.5463586,
      "lng": 127.07015039999999
    },
    "rating": null,
    "address": "서울특별시 광진구 화양동 16-1번지 1층"
  },
  {
    "id": "ChIJY5VDe8OkfDURn81V8XGq4pA",
    "name": "돼지돼지배달되지",
    "location": {
      "lat": 37.5463586,
      "lng": 127.07015039999999
    },
    "rating": null,
    "address": "서울특별시 화양동 16-1번지 1층 광진구 서울특별시 KR"
  },
  {
    "id": "ChIJ85-oe8OkfDUR2MlcHbu2bdQ",
    "name": "존포차",
    "location": {
      "lat": 37.5463415,
      "lng": 127.07003519999999
    },
    "rating": null,
    "address": "서울특별시 화양동 16-84번지 1층 광진구 서울특별시 KR"
  },
  {
    "id": "ChIJ85-oe8OkfDURgNbWamuFN1I",
    "name": "화양키친",
    "location": {
      "lat": 37.5463415,
      "lng": 127.07003519999999
    },
    "rating": null,
    "address": "서울특별시 화양동 16-84번지 1층 광진구 서울특별시 KR"
  },
  {
    "id": "ChIJ85-oe8OkfDURHzmilXdSH1M",
    "name": "화양식당",
    "location": {
      "lat": 37.5463415,
      "lng": 127.07003519999999
    },
    "rating": 4.4,
    "address": "서울특별시 광진구 화양동 16-84"
  },
  {
    "id": "ChIJ85-oe8OkfDURu4eOibasNO8",
    "name": "호식이두마리치킨화양점",
    "location": {
      "lat": 37.5463415,
      "lng": 127.07003519999999
    },
    "rating": 1.6,
    "address": "대한민국 서울특별시"
  },
  {
    "id": "ChIJ5_cXesOkfDUR89wYA_ocRPs",
    "name": "일구식탁",
    "location": {
      "lat": 37.5462713,
      "lng": 127.06992520000001
    },
    "rating": null,
    "address": "서울특별시 광진구 화양동 16-11번지 1호"
  },
  {
    "id": "ChIJe9rQmMOkfDUR1w-SGpyJwJw",
    "name": "초초하우스",
    "location": {
      "lat": 37.5460212,
      "lng": 127.0691792
    },
    "rating": null,
    "address": "서울특별시 광진구 화양동 번지 1층 32-2 101호"
  },
  {
    "id": "ChIJl4PAn8OkfDUR1xc9GXM-psw",
    "name": "맛샘원",
    "location": {
      "lat": 37.545875699999996,
      "lng": 127.06946500000001
    },
    "rating": null,
    "address": "서울특별시 화양동 16-18번지 1층 화양동상가 주택 광진구 서울특별시 KR"
  },
  {
    "id": "ChIJB2zpmgqlfDURXnsrDkP-JYA",
    "name": "꾸아",
    "location": {
      "lat": 37.544610399999996,
      "lng": 127.0708127
    },
    "rating": 4.3,
    "address": "서울특별시 광진구 화양동 군자로3길 9"
  },
  {
    "id": "ChIJAcieK8OkfDURA73eVlCp2YM",
    "name": "F&B care",
    "location": {
      "lat": 37.543928099999995,
      "lng": 127.07204429999999
    },
    "rating": null,
    "address": "서울특별시 광진구 화양동 2-39"
  },
  {
    "id": "ChIJXbonFA2ZfDUR9ZWVVW3xqBI",
    "name": "홍대돈부리 건대점",
    "location": {
      "lat": 37.5439271,
      "lng": 127.07203200000001
    },
    "rating": 4.5,
    "address": "서울특별시 광진구 화양동 군자로 4"
  },
  {
    "id": "ChIJ0f6YK8OkfDURp4JOwUSU4D0",
    "name": "신창원",
    "location": {
      "lat": 37.5439271,
      "lng": 127.07203200000001
    },
    "rating": null,
    "address": "번지, 2-39 화양동 광진구 서울특별시"
  },
  {
    "id": "ChIJsTXX0tykfDURhOlD08DCiBI",
    "name": "미스앤미스터포테이토 화양동",
    "location": {
      "lat": 37.544067,
      "lng": 127.0722665
    },
    "rating": null,
    "address": "서울특별시 광진구 화양동 2-46"
  },
  {
    "id": "ChIJk2DF0tykfDURJXXswwsj7xo",
    "name": "해피소뿡이건대점",
    "location": {
      "lat": 37.544067,
      "lng": 127.0722665
    },
    "rating": null,
    "address": "서울특별시 광진구 화양동 2-46"
  },
  {
    "id": "ChIJZ8Pc0tykfDURUSBEZGYexhQ",
    "name": "청벽집",
    "location": {
      "lat": 37.544069799999995,
      "lng": 127.0723007
    },
    "rating": null,
    "address": "서울특별시 광진구 화양동 번지 지하 2-46 1층"
  },
  {
    "id": "ChIJZ8Pc0tykfDURF8cezbz_BIo",
    "name": "뱃살도둑건대점",
    "location": {
      "lat": 37.544069799999995,
      "lng": 127.0723007
    },
    "rating": null,
    "address": "서울특별시 광진구 화양동 번지 1층 2-46"
  },
  {
    "id": "ChIJZ8Pc0tykfDURd41ROvlpSqg",
    "name": "한양식당",
    "location": {
      "lat": 37.544069799999995,
      "lng": 127.0723007
    },
    "rating": null,
    "address": "서울특별시 광진구 화양동 번지 지하 2-46 1층 102호"
  },
  {
    "id": "ChIJZ8Pc0tykfDURw-aU5s30s8w",
    "name": "셀렉키친",
    "location": {
      "lat": 37.544069799999995,
      "lng": 127.0723007
    },
    "rating": null,
    "address": "서울특별시 광진구 화양동 번지 지하 2-46 1층"
  },
  {
    "id": "ChIJZ8Pc0tykfDURgaaQndBWP0Y",
    "name": "골라먹는키친",
    "location": {
      "lat": 37.544069799999995,
      "lng": 127.0723007
    },
    "rating": null,
    "address": "서울특별시 광진구 화양동 번지 지하 2-46 1층"
  },
  {
    "id": "ChIJZ8Pc0tykfDURNvDmybByGNc",
    "name": "초밥이야",
    "location": {
      "lat": 37.544069799999995,
      "lng": 127.0723007
    },
    "rating": null,
    "address": "서울특별시 화양동 2-46번지 광진구 서울특별시 KR"
  },
  {
    "id": "ChIJZ8Pc0tykfDURFqtvKLmSU8g",
    "name": "본도시락건대점",
    "location": {
      "lat": 37.544079499999995,
      "lng": 127.07236779999998
    },
    "rating": 3.6,
    "address": "대한민국 서울특별시"
  },
  {
    "id": "ChIJi98cKsOkfDURDoN3A4wqBao",
    "name": "고향집",
    "location": {
      "lat": 37.5437893,
      "lng": 127.0719055
    },
    "rating": null,
    "address": "서울특별시 광진구 화양동 3-18"
  },
  {
    "id": "ChIJJS60cIilfDURFir054C4jAM",
    "name": "샤브로21 화양",
    "location": {
      "lat": 37.5436828,
      "lng": 127.0720169
    },
    "rating": 4.3,
    "address": "서울특별시 광진구 화양동 3-20"
  },
  {
    "id": "ChIJ09xXYkClfDURC5LGhPBL5N8",
    "name": "헤이러브 파티룸 건대점",
    "location": {
      "lat": 37.5436828,
      "lng": 127.0720169
    },
    "rating": 3.9,
    "address": "서울특별시 광진구 화양동 군자로 1"
  },
  {
    "id": "ChIJ_____9ykfDURDeoSeskn3NQ",
    "name": "노다메",
    "location": {
      "lat": 37.5440647,
      "lng": 127.0717411
    },
    "rating": 4.7,
    "address": "서울특별시 광진구 아차산로33길 90"
  },
  {
    "id": "ChIJwxJ19nulfDURGl71hrL-Szc",
    "name": "궁중보쌈",
    "location": {
      "lat": 37.5435552,
      "lng": 127.0720547
    },
    "rating": 4.4,
    "address": "서울특별시 광진구 화양동 3-21"
  },
  {
    "id": "ChIJ5-eq1cKkfDUR0I4e9fF-gG0",
    "name": "권이네부엌",
    "location": {
      "lat": 37.5435552,
      "lng": 127.0720547
    },
    "rating": null,
    "address": "서울특별시 화양동 3-21번지 지층 광진구 서울특별시 KR"
  },
  {
    "id": "ChIJ5-eq1cKkfDUR-p8pfg4Nql0",
    "name": "단체도시락배달전문점,소풍,수제,행사",
    "location": {
      "lat": 37.5435552,
      "lng": 127.0720547
    },
    "rating": null,
    "address": "서울특별시 광진구 화양동"
  },
  {
    "id": "ChIJT936VgClfDURHUM2eBNoS6U",
    "name": "와이스타브 다이어트 건대점",
    "location": {
      "lat": 37.5434155,
      "lng": 127.07196090000001
    },
    "rating": null,
    "address": "서울특별시 광진구 능동로 141"
  },
  {
    "id": "ChIJkzHA08KkfDURql7iaktaEVA",
    "name": "스시오 건대점",
    "location": {
      "lat": 37.5433626,
      "lng": 127.07196989999998
    },
    "rating": 2.7,
    "address": "서울특별시 광진구 능동로 141 2층"
  },
  {
    "id": "ChIJBdPL08KkfDURCnfgBza0yQY",
    "name": "Hanoi Star",
    "location": {
      "lat": 37.5433103,
      "lng": 127.07196780000001
    },
    "rating": 3.9,
    "address": "2nd floor, 3-25 화양동 광진구 서울특별시"
  },
  {
    "id": "ChIJ0zzOHQClfDURJWJW9kZJjrI",
    "name": "엠브로돈까스 건대점",
    "location": {
      "lat": 37.5433038,
      "lng": 127.07189079999999
    },
    "rating": 4.3,
    "address": "서울특별시 광진구 능동로 139"
  },
  {
    "id": "ChIJCSoh0sKkfDURNq5jcDQBNLw",
    "name": "시카고버거",
    "location": {
      "lat": 37.5432616,
      "lng": 127.0719055
    },
    "rating": null,
    "address": "서울특별시 광진구 화양동 3-25"
  },
  {
    "id": "ChIJy2WM0cKkfDUR8dcWIwrrgBA",
    "name": "대호",
    "location": {
      "lat": 37.5432681,
      "lng": 127.0718704
    },
    "rating": null,
    "address": "서울특별시 광진구 화양동 3-25번지"
  },
  {
    "id": "ChIJZxhQ0MKkfDUR4OzZho7q4yg",
    "name": "시옌",
    "location": {
      "lat": 37.5433988,
      "lng": 127.0717043
    },
    "rating": 4.1,
    "address": "서울특별시 광진구 능동로 137-8"
  },
  {
    "id": "ChIJvYoNR4SlfDURp0ghlrBJJHQ",
    "name": "서울양계 건대점",
    "location": {
      "lat": 37.5431951,
      "lng": 127.07190829999999
    },
    "rating": null,
    "address": "서울특별시 광진구 능동로 137-1"
  },
  {
    "id": "ChIJl_j5zcKkfDUR3f2ytS_ZYzU",
    "name": "ROLY POLY",
    "location": {
      "lat": 37.543143799999996,
      "lng": 127.0719352
    },
    "rating": 4,
    "address": "대한민국 서울특별시"
  },
  {
    "id": "ChIJQZELzsKkfDURnR8EmfxQj8k",
    "name": "솔레미오 건대점",
    "location": {
      "lat": 37.5431227,
      "lng": 127.07187769999999
    },
    "rating": null,
    "address": "서울특별시 광진구 화양동 3-26"
  },
  {
    "id": "ChIJMfL1zsKkfDURNS0huxtp88w",
    "name": "핫썬치킨 건대점",
    "location": {
      "lat": 37.5430671,
      "lng": 127.0717944
    },
    "rating": null,
    "address": "서울특별시 광진구 화양동 3-28"
  },
  {
    "id": "ChIJ-wIklGKlfDUR4QUB1EfN0sY",
    "name": "플레져",
    "location": {
      "lat": 37.542982599999995,
      "lng": 127.07175199999999
    },
    "rating": 3,
    "address": "서울특별시 광진구 화양동 능동로 135-2"
  },
  {
    "id": "ChIJnw8wz8KkfDURRTgz-kDd8lQ",
    "name": "우마이도 건대점",
    "location": {
      "lat": 37.5430294,
      "lng": 127.07174959999999
    },
    "rating": 4.2,
    "address": "서울특별시 광진구 능동로 135-2"
  },
  {
    "id": "ChIJnw8wz8KkfDURE_KdeAJHZR8",
    "name": "오마이갓치킨",
    "location": {
      "lat": 37.5429999,
      "lng": 127.07168250000001
    },
    "rating": null,
    "address": "서울특별시 화양동 3-29번지 2층 광진구 서울특별시 KR"
  },
  {
    "id": "ChIJyTswz8KkfDURKCfxJYNXiaA",
    "name": "안동참찜닭",
    "location": {
      "lat": 37.5429999,
      "lng": 127.07168250000001
    },
    "rating": 4,
    "address": "서울특별시 광진구 능동로 135-2"
  },
  {
    "id": "ChIJTfgxz8KkfDURHjvfo8CTNUM",
    "name": "콩불 건대점",
    "location": {
      "lat": 37.5429838,
      "lng": 127.07168329999999
    },
    "rating": 4.2,
    "address": "서울특별시 광진구 화양동 3-29"
  },
  {
    "id": "ChIJs0LHzsKkfDURGC-VaL_0Tgo",
    "name": "벨루테",
    "location": {
      "lat": 37.542969299999996,
      "lng": 127.0718085
    },
    "rating": null,
    "address": "서울특별시 광진구 화양동 번지 2층 3-30"
  },
  {
    "id": "ChIJnxG809elfDURYY32-OUiRlc",
    "name": "북경",
    "location": {
      "lat": 37.542969299999996,
      "lng": 127.0718085
    },
    "rating": 4,
    "address": "서울특별시 광진구 화양동 능동로 135"
  },
  {
    "id": "ChIJY2TqyMKkfDUR8c5cgzGNHHY",
    "name": "서병장대김일병 건대점",
    "location": {
      "lat": 37.54290050000001,
      "lng": 127.0716555
    },
    "rating": 3.6,
    "address": "서울특별시 광진구 화양동 3-33"
  },
  {
    "id": "ChIJw9mEs4ulfDURWN--u6rdzxg",
    "name": "긴자료코",
    "location": {
      "lat": 37.5428717,
      "lng": 127.071761
    },
    "rating": 4.6,
    "address": "서울특별시 광진구 능동로 133-1 1 층"
  },
  {
    "id": "ChIJtxTYJfWlfDURu2zJfM-EWSA",
    "name": "워너비박스 건대점",
    "location": {
      "lat": 37.5428717,
      "lng": 127.071761
    },
    "rating": null,
    "address": "서울특별시 광진구 능동로 133-1"
  },
  {
    "id": "ChIJm_oiycKkfDURKt1ZGmracC0",
    "name": "홍익떡볶이 건대점",
    "location": {
      "lat": 37.5428717,
      "lng": 127.071761
    },
    "rating": 3,
    "address": "서울특별시 광진구 화양동 능동로 133-1"
  },
  {
    "id": "ChIJ7xtDyMKkfDURVgZpmAu3_2g",
    "name": "보스코",
    "location": {
      "lat": 37.5427894,
      "lng": 127.0716555
    },
    "rating": 3,
    "address": "서울특별시 광진구 화양동 3-34"
  },
  {
    "id": "ChIJGfsXyMKkfDURb68E-Jxf5lI",
    "name": "고추먹고맴맴",
    "location": {
      "lat": 37.5427301,
      "lng": 127.0716417
    },
    "rating": null,
    "address": "서울특별시 화양동 3-35번지 광진구 서울특별시 KR"
  },
  {
    "id": "ChIJ4dwZyMKkfDUR1NukKAUEviA",
    "name": "장우동",
    "location": {
      "lat": 37.5427061,
      "lng": 127.0716555
    },
    "rating": null,
    "address": "서울특별시 광진구 화양동"
  },
  {
    "id": "ChIJWazRQV6lfDURsfJhei9NvYY",
    "name": "고씨네 건국대점",
    "location": {
      "lat": 37.5424872,
      "lng": 127.07145229999999
    },
    "rating": 4.5,
    "address": "서울특별시 광진구 화양동 3-42 2층"
  },
  {
    "id": "ChIJt12-ucKkfDURZINm_4w6aN4",
    "name": "데스티노",
    "location": {
      "lat": 37.5425496,
      "lng": 127.07146069999999
    },
    "rating": 2.5,
    "address": "서울특별시 광진구 능동로13길 6"
  },
  {
    "id": "ChIJ80AMucKkfDUReSWlRPlckE8",
    "name": "할머니가래떡볶이",
    "location": {
      "lat": 37.5425901,
      "lng": 127.07136509999998
    },
    "rating": 5,
    "address": "서울특별시 광진구 화양동 번지 1층 3-43"
  },
  {
    "id": "ChIJnzHYGgClfDUR1HWRd6HzEIY",
    "name": "상상카츠 건대점",
    "location": {
      "lat": 37.542643,
      "lng": 127.07137370000001
    },
    "rating": 5,
    "address": "서울특별시 광진구 능동로13길 10 1층"
  },
  {
    "id": "ChIJ80AMucKkfDURi4BE6wgI8ks",
    "name": "홍마떡건대점",
    "location": {
      "lat": 37.542397199999996,
      "lng": 127.0713453
    },
    "rating": 4,
    "address": "1층, 3-43번지 화양동 광진구 서울특별시"
  },
  {
    "id": "ChIJQR3ut8KkfDURx9irwviBWYw",
    "name": "밀피유건대점",
    "location": {
      "lat": 37.5426551,
      "lng": 127.07160189999999
    },
    "rating": null,
    "address": "서울특별시 광진구 화양동 3-37"
  },
  {
    "id": "ChIJD2AeyMKkfDURWCTditTZJoE",
    "name": "라파스타",
    "location": {
      "lat": 37.5427061,
      "lng": 127.0716277
    },
    "rating": null,
    "address": "서울특별시 광진구 화양동 3-35"
  },
  {
    "id": "ChIJr0E0BCulfDURwO7mhe93F3w",
    "name": "돈가츠 펍타임",
    "location": {
      "lat": 37.542511399999995,
      "lng": 127.071208
    },
    "rating": 4,
    "address": "서울특별시 광진구 화양동 능동로13길 9 지하1층"
  },
  {
    "id": "ChIJdQamDj6lfDURBreTj7LuXFo",
    "name": "피자빌리지 건대직영점",
    "location": {
      "lat": 37.542482799999995,
      "lng": 127.07116959999999
    },
    "rating": 5,
    "address": "서울특별시 광진구 화양동 5-108"
  },
  {
    "id": "ChIJswEavMKkfDURhirZHZdFEx4",
    "name": "파스타타임",
    "location": {
      "lat": 37.5425435,
      "lng": 127.071162
    },
    "rating": 4,
    "address": "서울특별시 화양동 5-20번지 지하 광진구 서울특별시 KR"
  },
  {
    "id": "ChIJG_VDUAClfDUR0aR6DV8ktFo",
    "name": "길동우동 건대점",
    "location": {
      "lat": 37.542581299999995,
      "lng": 127.07116280000001
    },
    "rating": 5,
    "address": "1 층, 5-20 화양동 광진구 서울특별시"
  },
  {
    "id": "ChIJp1jXusKkfDURYxHoZy3SqRM",
    "name": "미다래",
    "location": {
      "lat": 37.5422339,
      "lng": 127.0714333
    },
    "rating": 3.3,
    "address": "서울특별시 광진구 화양동 5-1"
  },
  {
    "id": "ChIJAYxIOpOlfDURxcWQNALKCtY",
    "name": "제주곤이칼국수 건대점",
    "location": {
      "lat": 37.5427015,
      "lng": 127.07120750000001
    },
    "rating": 4.2,
    "address": "서울특별시 광진구 능동로13길 12"
  },
  {
    "id": "ChIJg8HVvsKkfDUR5DSYdtiLaUs",
    "name": "시민분식센터건대점",
    "location": {
      "lat": 37.5427015,
      "lng": 127.07120750000001
    },
    "rating": null,
    "address": "서울특별시 광진구 화양동 번지 1층 3-70"
  },
  {
    "id": "ChIJZ7_aTLylfDURSSrsVL9Dm-Y",
    "name": "장미찜닭 건대점",
    "location": {
      "lat": 37.5427015,
      "lng": 127.07120750000001
    },
    "rating": 5,
    "address": "서울특별시 광진구 화양동 능동로13길 12"
  },
  {
    "id": "ChIJg8HVvsKkfDUR3NWYI9yDt7k",
    "name": "미쵸곱창",
    "location": {
      "lat": 37.5427015,
      "lng": 127.07120750000001
    },
    "rating": null,
    "address": "서울특별시 화양동 3-70번지 1층 광진구 서울특별시 KR"
  },
  {
    "id": "ChIJm8LUusKkfDURv7xCkUK-l3Q",
    "name": "반카니타",
    "location": {
      "lat": 37.54220610000001,
      "lng": 127.0714056
    },
    "rating": 3,
    "address": "서울특별시 광진구 화양동 5-1"
  },
  {
    "id": "ChIJKzrg8IulfDURk1dCNirHnTo",
    "name": "코코스타코1983 건대점",
    "location": {
      "lat": 37.5430342,
      "lng": 127.07098130000001
    },
    "rating": 5,
    "address": "서울특별시 광진구 아차산로33길 63 1층"
  },
  {
    "id": "ChIJldnFwMKkfDURUSdMf6LeuXE",
    "name": "카도야라멘",
    "location": {
      "lat": 37.542953499999996,
      "lng": 127.071175
    },
    "rating": null,
    "address": "서울특별시 화양동 3-73번지 지하1호 지상1 2층 광진구 서울특별시 KR"
  },
  {
    "id": "ChIJldnFwMKkfDURTkz4D06gRIY",
    "name": "고베규카츠 건대점",
    "location": {
      "lat": 37.542953499999996,
      "lng": 127.071175
    },
    "rating": 3.4,
    "address": "서울특별시 광진구 화양동 3-73"
  },
  {
    "id": "ChIJOV_GwMKkfDURzEC0_pQhodk",
    "name": "씨즈",
    "location": {
      "lat": 37.542953499999996,
      "lng": 127.071175
    },
    "rating": null,
    "address": "서울특별시 광진구 화양동 3-73"
  },
  {
    "id": "ChIJBW67t3ylfDURs3d_f3ns92c",
    "name": "팔공티",
    "location": {
      "lat": 37.5429842,
      "lng": 127.07095279999999
    },
    "rating": 4.7,
    "address": "서울특별시 광진구 화양동 12-30"
  },
  {
    "id": "ChIJhf6Ud5ClfDURSMp1h8V5lw4",
    "name": "명랑핫도그 건대 1호점",
    "location": {
      "lat": 37.5429842,
      "lng": 127.07095279999999
    },
    "rating": 3.2,
    "address": "서울특별시 광진구 아차산로33길 63"
  },
  {
    "id": "ChIJ2SESwMKkfDURZMhP0Q4PRiA",
    "name": "내가찜한닭 건국대점",
    "location": {
      "lat": 37.5429842,
      "lng": 127.07095279999999
    },
    "rating": 4.4,
    "address": "서울특별시 화양동 12-30번지 2층 광진구 서울특별시 KR"
  },
  {
    "id": "ChIJD-HmxsKkfDURdQrLMEnMv-4",
    "name": "능동샐러드",
    "location": {
      "lat": 37.542977199999996,
      "lng": 127.0713195
    },
    "rating": 4.2,
    "address": "서울특별시 화양동 3-61번지 광진구 서울특별시 KR"
  },
  {
    "id": "ChIJ1ao8DgClfDURHbYhTl7JqNw",
    "name": "코노하 건대점",
    "location": {
      "lat": 37.542899399999996,
      "lng": 127.07085140000001
    },
    "rating": null,
    "address": "서울특별시 광진구 능동로13길 19 2층"
  },
  {
    "id": "ChIJWR4_tVqlfDURKadQvK3HW_w",
    "name": "이삭토스트 화양점",
    "location": {
      "lat": 37.542974,
      "lng": 127.07075649999999
    },
    "rating": null,
    "address": "서울특별시 광진구 화양동 11-30"
  },
  {
    "id": "ChIJfUQtXsWkfDURxYDs3CDsmMY",
    "name": "김밥천국",
    "location": {
      "lat": 37.542956,
      "lng": 127.07073890000001
    },
    "rating": 4,
    "address": "서울특별시 광진구 화양동"
  },
  {
    "id": "ChIJ__jO68KkfDURvjwF3s3R2mw",
    "name": "산호복집",
    "location": {
      "lat": 37.543284,
      "lng": 127.0706865
    },
    "rating": null,
    "address": "서울특별시 광진구 화양동 12-33"
  },
  {
    "id": "ChIJqb5j28KkfDURtA7ww1qrxn0",
    "name": "육회지존 건대점",
    "location": {
      "lat": 37.5435115,
      "lng": 127.0712389
    },
    "rating": 5,
    "address": "서울특별시 광진구 화양동 12-3"
  },
  {
    "id": "ChIJeah1lcKkfDUR9wQz94inOy4",
    "name": "멘부리건대점",
    "location": {
      "lat": 37.54285610000001,
      "lng": 127.0708163
    },
    "rating": null,
    "address": "서울특별시 광진구 화양동 번지 지하층 11-2"
  },
  {
    "id": "ChIJDeSGF92kfDURthNXB4M4F2o",
    "name": "화양동솜틀집",
    "location": {
      "lat": 37.5435227,
      "lng": 127.071246
    },
    "rating": null,
    "address": "서울특별시 광진구 화양동 12-3"
  },
  {
    "id": "ChIJv9u0LQClfDURVX9IeRMJIy4",
    "name": "멘지 건대점",
    "location": {
      "lat": 37.542808799999996,
      "lng": 127.0709074
    },
    "rating": 5,
    "address": "서울특별시 광진구 능동로13길 15 2층"
  },
  {
    "id": "ChIJEYsyVaqlfDURlMHoGUV7xBA",
    "name": "메호르",
    "location": {
      "lat": 37.542785099999996,
      "lng": 127.07091009999999
    },
    "rating": 5,
    "address": "서울특별시 광진구 화양동 11-1"
  },
  {
    "id": "ChIJO_CrlMKkfDURCocljhpo_MQ",
    "name": "초밥짓는원숭이",
    "location": {
      "lat": 37.5431033,
      "lng": 127.0706009
    },
    "rating": 4,
    "address": "서울특별시 광진구 화양동 11-32"
  },
  {
    "id": "ChIJt19R68KkfDUR57Tgv8lE-pk",
    "name": "미야비",
    "location": {
      "lat": 37.5430949,
      "lng": 127.07059999999998
    },
    "rating": 3.4,
    "address": "서울특별시 광진구 화양동 11-32"
  },
  {
    "id": "ChIJK9GNfAOlfDURGcWEaABiDiY",
    "name": "블랙스테이크",
    "location": {
      "lat": 37.5427667,
      "lng": 127.07092109999998
    },
    "rating": 4,
    "address": "서울특별시 광진구 화양동 11-1"
  },
  {
    "id": "ChIJoZm57sKkfDURDbkBKeTgJIE",
    "name": "투고샐러드 건대중문점",
    "location": {
      "lat": 37.5434537,
      "lng": 127.0705034
    },
    "rating": 4.5,
    "address": "대한민국 서울특별시"
  },
  {
    "id": "ChIJoZm57sKkfDUR-dXmElZ_LPg",
    "name": "210도씨",
    "location": {
      "lat": 37.5434537,
      "lng": 127.0705034
    },
    "rating": 4.8,
    "address": "서울특별시 화양동 12-35번지 2층 광진구 서울특별시 KR"
  },
  {
    "id": "ChIJ-f_-7sKkfDUR1sMVyZ98cJw",
    "name": "BURGERRY",
    "location": {
      "lat": 37.543569999999995,
      "lng": 127.07039669999999
    },
    "rating": 5,
    "address": "서울특별시 광진구 화양동 번지 1층 12-36"
  },
  {
    "id": "ChIJcaTxo_ulfDURnvgWGVV5ego",
    "name": "버거리 건대점",
    "location": {
      "lat": 37.543569999999995,
      "lng": 127.07039669999999
    },
    "rating": 4.5,
    "address": "서울특별시 광진구 능동로13길 36"
  },
  {
    "id": "ChIJIfb968KkfDURCNbegqxqZAY",
    "name": "Grill Monster",
    "location": {
      "lat": 37.5433686,
      "lng": 127.0705783
    },
    "rating": 3.4,
    "address": "서울특별시 광진구 화양동 12-34"
  },
  {
    "id": "ChIJY336NyWlfDUR5JPO3V3EcG8",
    "name": "맘스터치 피자앤치킨 건대점",
    "location": {
      "lat": 37.543359699999996,
      "lng": 127.0705804
    },
    "rating": null,
    "address": "서울특별시 광진구 화양동 12-34"
  },
  {
    "id": "ChIJZTHC81WlfDURsRBm4ezfGRg",
    "name": "화양동닭강정",
    "location": {
      "lat": 37.543359699999996,
      "lng": 127.0705804
    },
    "rating": 4,
    "address": "서울특별시 광진구 화양동 12-34"
  },
  {
    "id": "ChIJx7X968KkfDURLD3ZAHDzhVU",
    "name": "그릴몬스터",
    "location": {
      "lat": 37.543359699999996,
      "lng": 127.0705804
    },
    "rating": 5,
    "address": "서울특별시 광진구 아차산로33길 화양동"
  },
  {
    "id": "ChIJx7X968KkfDUR6OI4gK9tqoA",
    "name": "고선생고로캐",
    "location": {
      "lat": 37.543359699999996,
      "lng": 127.0705804
    },
    "rating": null,
    "address": "서울특별시 화양동 12-34번지 광진구 서울특별시 KR"
  },
  {
    "id": "ChIJY4JAOAClfDUR5al3ZnEYfqA",
    "name": "요이타코",
    "location": {
      "lat": 37.5433385,
      "lng": 127.0706006
    },
    "rating": 5,
    "address": "서울특별시 광진구 능동로13길 30"
  },
  {
    "id": "ChIJdZ7KwkylfDURWYgloWGPV38",
    "name": "명품 마라샹궈 마라탕",
    "location": {
      "lat": 37.543672,
      "lng": 127.07029469999999
    },
    "rating": 4.3,
    "address": "서울특별시 광진구 능동로13길 40"
  },
  {
    "id": "ChIJ04fHqh6lfDUR41unmnihnKA",
    "name": "떡밀밀 건대역점",
    "location": {
      "lat": 37.543668,
      "lng": 127.07029459999998
    },
    "rating": null,
    "address": "서울특별시 광진구 화양동 12-34"
  },
  {
    "id": "ChIJn8nem9ilfDURp-Yqn5it8KA",
    "name": "현이네고기국수",
    "location": {
      "lat": 37.544209699999996,
      "lng": 127.070183
    },
    "rating": 4.1,
    "address": "서울특별시 광진구 군자로3길 23"
  },
  {
    "id": "ChIJVTbnQJ2lfDURt0I02qgyspU",
    "name": "호파스타 건대본점",
    "location": {
      "lat": 37.544255199999995,
      "lng": 127.0702032
    },
    "rating": 4.8,
    "address": "서울특별시 광진구 화양동 12-52"
  },
  {
    "id": "ChIJ_1OH-8KkfDUR1EDfbFiE6G8",
    "name": "건대장터국밥",
    "location": {
      "lat": 37.5441447,
      "lng": 127.0700286
    },
    "rating": 5,
    "address": "서울특별시 광진구 화양동 번지 1층 12-42"
  },
  {
    "id": "ChIJB6kN2n2lfDURpgKNL7GcsG8",
    "name": "제주흑돼지 한아름식당",
    "location": {
      "lat": 37.5441447,
      "lng": 127.0700286
    },
    "rating": 4,
    "address": "서울특별시 광진구 화양동 군자로3길 27"
  },
  {
    "id": "ChIJlTDAPAClfDURnlrMsSko1Hs",
    "name": "처갓집양념치킨 건대화양점",
    "location": {
      "lat": 37.5439096,
      "lng": 127.07012299999998
    },
    "rating": null,
    "address": "서울특별시 광진구 능동로13길 44"
  },
  {
    "id": "ChIJCZZa-sKkfDUREUmG-pU6CBs",
    "name": "해남닭집",
    "location": {
      "lat": 37.544005399999996,
      "lng": 127.07002819999998
    },
    "rating": 4.1,
    "address": "서울특별시 광진구 능동로13길 46 1 층"
  },
  {
    "id": "ChIJednXTtSlfDURsN-ifDKiGR0",
    "name": "미분당",
    "location": {
      "lat": 37.5442142,
      "lng": 127.07004599999999
    },
    "rating": 3.7,
    "address": "서울특별시 광진구 군자로3길 27"
  },
  {
    "id": "ChIJ95dR-sKkfDURvDQALwlVGCY",
    "name": "토마토도시락 건대점",
    "location": {
      "lat": 37.5439837,
      "lng": 127.07001670000001
    },
    "rating": null,
    "address": "서울특별시 광진구 화양동 12-40"
  },
  {
    "id": "ChIJK51_MNilfDURLG8fgUqDwvg",
    "name": "피자스쿨 건대점",
    "location": {
      "lat": 37.543867899999995,
      "lng": 127.07011349999999
    },
    "rating": 5,
    "address": "서울특별시 광진구 화양동 능동로13길 44 1층"
  },
  {
    "id": "ChIJO8uQ-sKkfDUROWPh_kQZUo0",
    "name": "미정국수0410건대화양시장점",
    "location": {
      "lat": 37.543867899999995,
      "lng": 127.07011349999999
    },
    "rating": null,
    "address": "서울특별시 화양동 12-39번지 1층 광진구 서울특별시 KR"
  },
  {
    "id": "ChIJO8uQ-sKkfDUR66Jn0T0AiO4",
    "name": "카츠젠 건대점",
    "location": {
      "lat": 37.543867899999995,
      "lng": 127.07011349999999
    },
    "rating": 3.9,
    "address": "대한민국 서울특별시"
  },
  {
    "id": "ChIJO8uQ-sKkfDUR8vvxGTtgw3U",
    "name": "육회명가",
    "location": {
      "lat": 37.543867899999995,
      "lng": 127.07011349999999
    },
    "rating": 4,
    "address": "서울특별시 광진구 화양동 번지 1층 12-39 103호"
  },
  {
    "id": "ChIJmT9XUu-lfDURzQSQzuC3mMs",
    "name": "악어떡볶이2호점",
    "location": {
      "lat": 37.5439553,
      "lng": 127.07000939999999
    },
    "rating": 4,
    "address": "서울특별시 광진구 화양동 능동로13길 46"
  },
  {
    "id": "ChIJFSAt-sKkfDURi0Rbg85IcSg",
    "name": "수퍼슬라이더스 | Super Sliders",
    "location": {
      "lat": 37.5440708,
      "lng": 127.06990839999999
    },
    "rating": 4.5,
    "address": "서울특별시 광진구 능동로13길 50"
  },
  {
    "id": "ChIJtezQo9KlfDURyu6RLHGyV-w",
    "name": "건대연어덮밥",
    "location": {
      "lat": 37.54376630000001,
      "lng": 127.07019389999999
    },
    "rating": 4.8,
    "address": "서울특별시 광진구 능동로13길 42"
  },
  {
    "id": "ChIJbxIw_MKkfDURgacBrcvm4Gw",
    "name": "착한돈까스",
    "location": {
      "lat": 37.544329,
      "lng": 127.0699934
    },
    "rating": 4.2,
    "address": "서울특별시 광진구 군자로3길 26"
  },
  {
    "id": "ChIJ4792VvmlfDURZJ5Hqvg-Jfs",
    "name": "끼니공방",
    "location": {
      "lat": 37.5441794,
      "lng": 127.06983430000001
    },
    "rating": 3.5,
    "address": "서울특별시 광진구 화양동 15 - 54 끼니공방 1층"
  },
  {
    "id": "ChIJEZkz-cKkfDUR9A8wWNjHlVk",
    "name": "도단집",
    "location": {
      "lat": 37.5442737,
      "lng": 127.0697885
    },
    "rating": 4.6,
    "address": "서울특별시 광진구 능동로13길 54"
  },
  {
    "id": "ChIJucQ6_8KkfDUR-4534JTKFnE",
    "name": "소야돼지야",
    "location": {
      "lat": 37.5443194,
      "lng": 127.06966990000001
    },
    "rating": null,
    "address": "서울특별시 화양동 15-55번지 광진구 서울특별시 KR"
  },
  {
    "id": "ChIJazMkVcKkfDURaMgAyjLlp_c",
    "name": "김밥마을",
    "location": {
      "lat": 37.5446165,
      "lng": 127.0694048
    },
    "rating": 4.4,
    "address": "서울특별시 화양동 15-61번지 광진구 서울특별시 KR"
  },
  {
    "id": "ChIJs4JyeAClfDURLNPThYWtu7E",
    "name": "레딕",
    "location": {
      "lat": 37.545128399999996,
      "lng": 127.0691385
    },
    "rating": null,
    "address": "지층 광진구 화양동 16-31 KR 서울특별시"
  },
  {
    "id": "ChIJrbVy15ilfDURjoickLFPS9E",
    "name": "소와참숯3호점",
    "location": {
      "lat": 37.5450893,
      "lng": 127.0689112
    },
    "rating": null,
    "address": "서울특별시 광진구 화양동 16-28 1층"
  },
  {
    "id": "ChIJo_oyq8OkfDUR6sgspal0GhE",
    "name": "통숯불돼지고기",
    "location": {
      "lat": 37.544696099999996,
      "lng": 127.0693303
    },
    "rating": 4,
    "address": "서울특별시 화양동 15-62번지 1층 광진구 서울특별시 KR"
  },
  {
    "id": "ChIJo_oyq8OkfDURHEVN4SdrC6A",
    "name": "혼식당",
    "location": {
      "lat": 37.544696099999996,
      "lng": 127.0693303
    },
    "rating": null,
    "address": "서울특별시 광진구 화양동 15-62번지 1층"
  },
  {
    "id": "ChIJQwkuq8OkfDURLHFr-T9SF9s",
    "name": "페리카나",
    "location": {
      "lat": 37.544696099999996,
      "lng": 127.0693303
    },
    "rating": 3.9,
    "address": "서울특별시 광진구 화양동 15-62"
  },
  {
    "id": "ChIJaYEC7BGlfDUR1I-ydo2WLgA",
    "name": "초라멘",
    "location": {
      "lat": 37.545157599999996,
      "lng": 127.06886490000001
    },
    "rating": 4.7,
    "address": "서울특별시 광진구 화양동 능동로13길 80"
  },
  {
    "id": "ChIJ5yQ5LXulfDURqvCbyF7ff2A",
    "name": "제면소의하루 건대점",
    "location": {
      "lat": 37.5447576,
      "lng": 127.0690841
    },
    "rating": 5,
    "address": "서울특별시 광진구 화양동 33-40"
  },
  {
    "id": "ChIJ1yPTVMKkfDURK6jFF05aSB4",
    "name": "페리카나 화양리점",
    "location": {
      "lat": 37.544678,
      "lng": 127.06935010000001
    },
    "rating": null,
    "address": "서울특별시 광진구 화양동 15-62"
  },
  {
    "id": "ChIJo_oyq8OkfDURzoV47HfVPW4",
    "name": "쏭타코야끼카페",
    "location": {
      "lat": 37.544678999999995,
      "lng": 127.0693178
    },
    "rating": 5,
    "address": "서울특별시 광진구 1층"
  },
  {
    "id": "ChIJNzgZOqalfDURp8oGe93cVsI",
    "name": "정면",
    "location": {
      "lat": 37.5455262,
      "lng": 127.0687454
    },
    "rating": 4.6,
    "address": "서울특별시 광진구 화양동 능동로13길 88 정 면 1층"
  },
  {
    "id": "ChIJ326SgX-lfDURmtPY_e_6naM",
    "name": "대패로23",
    "location": {
      "lat": 37.5455438,
      "lng": 127.0686817
    },
    "rating": 4.3,
    "address": "서울, 광진구 능동로13길 88"
  },
  {
    "id": "ChIJz5B3usOkfDURLm9yVv64Qxg",
    "name": "뚠뚠족발AND장칼",
    "location": {
      "lat": 37.5455153,
      "lng": 127.0686638
    },
    "rating": null,
    "address": "서울특별시 광진구 화양동 번지 1층 32-17"
  },
  {
    "id": "ChIJ2V4RARGlfDURTbPTbh34wH4",
    "name": "회풍",
    "location": {
      "lat": 37.5455153,
      "lng": 127.0686638
    },
    "rating": 4,
    "address": "서울특별시 광진구 화양동 능동로13길 88"
  },
  {
    "id": "ChIJz5B3usOkfDURFTGlaMOW58g",
    "name": "고기세접시",
    "location": {
      "lat": 37.5455153,
      "lng": 127.0686638
    },
    "rating": null,
    "address": "서울특별시 광진구 화양동 32-17번지 1층"
  },
  {
    "id": "ChIJ4ac7azWlfDURqCQAJ7u0pIg",
    "name": "조개에 꼬치다",
    "location": {
      "lat": 37.5455153,
      "lng": 127.0686638
    },
    "rating": null,
    "address": "서울특별시 광진구 화양동 능동로13길 88"
  },
  {
    "id": "ChIJTfnOocOkfDUR18VBAARg3gs",
    "name": "동대문곱창",
    "location": {
      "lat": 37.545789,
      "lng": 127.06935010000001
    },
    "rating": null,
    "address": "서울특별시 광진구 화양동 16-53"
  },
  {
    "id": "ChIJYbGZlcOkfDURGM70pz3h4ig",
    "name": "밥깨비",
    "location": {
      "lat": 37.546240399999995,
      "lng": 127.0684092
    },
    "rating": null,
    "address": "서울특별시 화양동 32-32번지 1층 광진구 서울특별시 KR"
  },
  {
    "id": "ChIJYbGZlcOkfDUR6FQ1P6jfc5A",
    "name": "유석풍천장어",
    "location": {
      "lat": 37.5462425,
      "lng": 127.06840749999998
    },
    "rating": 4.6,
    "address": "서울특별시 광진구 동일로28길 32"
  },
  {
    "id": "ChIJV-BaEb2lfDURobm56mFnBF4",
    "name": "신전떡볶이",
    "location": {
      "lat": 37.5458206,
      "lng": 127.06831139999998
    },
    "rating": 4.1,
    "address": "서울특별시 광진구 화양동 32-34"
  },
  {
    "id": "ChIJu1GbBdukfDURDkeh4Hc_xks",
    "name": "대학갈비",
    "location": {
      "lat": 37.5469,
      "lng": 127.07443289999998
    },
    "rating": null,
    "address": "서울특별시 광진구 화양동 111-72"
  },
  {
    "id": "ChIJu1GbBdukfDURMlluTokoWsQ",
    "name": "주먹구구",
    "location": {
      "lat": 37.546931799999996,
      "lng": 127.07440399999999
    },
    "rating": 4,
    "address": "대한민국 서울특별시"
  },
  {
    "id": "ChIJA9CeBdukfDURyomCh0ulsAE",
    "name": "이박사한우촌",
    "location": {
      "lat": 37.5469278,
      "lng": 127.07434959999999
    },
    "rating": null,
    "address": "서울특별시 광진구 화양동 111-72"
  },
  {
    "id": "ChIJgYNOBNukfDURnFcTIv7jdhw",
    "name": "붕어빵 4개 천원!잉어빵아님",
    "location": {
      "lat": 37.5470143,
      "lng": 127.0744641
    },
    "rating": null,
    "address": "서울특별시 광진구 화양동 169-1"
  },
  {
    "id": "ChIJ_0woZtukfDURAsyUvedLUJY",
    "name": "공릉동원조멸치국수 화양점",
    "location": {
      "lat": 37.5459447,
      "lng": 127.07377120000001
    },
    "rating": 5,
    "address": "서울특별시 광진구 화양동 111 85번지 빌리브인테라스 1층 102호"
  },
  {
    "id": "ChIJt0oimqWlfDURd_4L5UdiOM8",
    "name": "반주옥",
    "location": {
      "lat": 37.545820299999995,
      "lng": 127.07410250000001
    },
    "rating": 5,
    "address": "서울특별시 상가동 108호 KR 서울특별시 광진구 능동로172 빌리브인테라스 1층"
  },
  {
    "id": "ChIJ-SwjGSmlfDURwoLnVA84tZU",
    "name": "마늘은약이다보쌈&족발 건대입구역점",
    "location": {
      "lat": 37.5462765,
      "lng": 127.07535530000001
    },
    "rating": null,
    "address": "서울특별시 광진구 화양동 499-38 마늘은약이다보쌈&족발 건대입구역점 2층"
  },
  {
    "id": "ChIJ5wbtc4-lfDURyP1JQvyhSiM",
    "name": "궤도에 오르다",
    "location": {
      "lat": 37.5464057,
      "lng": 127.0755739
    },
    "rating": 4.5,
    "address": "서울특별시 광진구 화양동 광나루로 416"
  },
  {
    "id": "ChIJkXRNpdukfDUR6cSSUv8dRSQ",
    "name": "양분식",
    "location": {
      "lat": 37.5464057,
      "lng": 127.0755739
    },
    "rating": 4,
    "address": "서울특별시 광진구 화양동 499-1번지 1층"
  },
  {
    "id": "ChIJkXRNpdukfDURwaEbGjgAMa8",
    "name": "오늘통닭",
    "location": {
      "lat": 37.5464057,
      "lng": 127.0755739
    },
    "rating": null,
    "address": "서울특별시 광진구 화양동"
  },
  {
    "id": "ChIJd-MNJKSlfDURTf67oA340C8",
    "name": "백쉐프 초밥가게",
    "location": {
      "lat": 37.546639899999995,
      "lng": 127.07517879999999
    },
    "rating": 4.9,
    "address": "서울특별시 광진구 광나루로 410"
  },
  {
    "id": "ChIJlVqbmdWlfDURkBLm_Kpyom8",
    "name": "한해",
    "location": {
      "lat": 37.54649510000001,
      "lng": 127.07558739999997
    },
    "rating": 4.3,
    "address": "서울특별시 광진구 광나루로 416"
  },
  {
    "id": "ChIJXerHZwClfDURgWQRoLsNDng",
    "name": "우동가조쿠",
    "location": {
      "lat": 37.54649510000001,
      "lng": 127.07558739999997
    },
    "rating": null,
    "address": "서울특별시 광진구 광나루로 416"
  },
  {
    "id": "ChIJv-ADsNukfDURbHmqzUncoqc",
    "name": "본가장충동왕족발보쌈화양동점",
    "location": {
      "lat": 37.5464555,
      "lng": 127.07559930000001
    },
    "rating": null,
    "address": "서울특별시 광진구 화양동"
  },
  {
    "id": "ChIJAXOwp9ukfDURpUWUKHuipXI",
    "name": "이순미",
    "location": {
      "lat": 37.5465376,
      "lng": 127.0750404
    },
    "rating": null,
    "address": "서울특별시 06 07 08 09 KR 서울특별시 광진구 화양동 527번지 케이씨씨파크타운 지하층 비02 04호 05"
  },
  {
    "id": "ChIJAXOwp9ukfDURI3dtQl9FmY0",
    "name": "동궁찜닭 건대광진점",
    "location": {
      "lat": 37.5465376,
      "lng": 127.0750404
    },
    "rating": 4.7,
    "address": "서울특별시 광진구 화양동 527번지 케이씨씨파크타운 1층 112호"
  },
  {
    "id": "ChIJAXOwp9ukfDURYQMlNIJi22o",
    "name": "송돼지냉면",
    "location": {
      "lat": 37.5465376,
      "lng": 127.0750404
    },
    "rating": null,
    "address": "서울특별시 광진구 화양동 527번지 KCC파크타운 1층 104호"
  },
  {
    "id": "ChIJAXOwp9ukfDUR4p3DDQkHbu0",
    "name": "오니기리와이규동",
    "location": {
      "lat": 37.5465376,
      "lng": 127.0750404
    },
    "rating": 3.1,
    "address": "서울특별시 화양동 527번지 케이씨빌딩 109호 광진구 서울특별시 KR"
  },
  {
    "id": "ChIJs-cHAsilfDURBGzTd-j4TuA",
    "name": "빕스 어린이대공원점",
    "location": {
      "lat": 37.5465376,
      "lng": 127.0750404
    },
    "rating": 4,
    "address": "서울특별시 광진구 화양동 광나루로 410 KCC 파크타운 2층"
  },
  {
    "id": "ChIJ-Vmjp9ukfDURSoX6QfulrWc",
    "name": "미소리",
    "location": {
      "lat": 37.546538999999996,
      "lng": 127.0750162
    },
    "rating": 5,
    "address": "서울특별시 광진구 화양동 527"
  },
  {
    "id": "ChIJCYOlutukfDURoQ7Xdg8Iv68",
    "name": "레올리비에",
    "location": {
      "lat": 37.5464001,
      "lng": 127.07562719999999
    },
    "rating": null,
    "address": "서울특별시 광진구 화양동 499-1"
  },
  {
    "id": "ChIJ1SIIyw-lfDURxHMCkhTal0E",
    "name": "마시케준카츠",
    "location": {
      "lat": 37.546559099999996,
      "lng": 127.07501239999999
    },
    "rating": 3,
    "address": "서울특별시 광진구 광나루로 410"
  },
  {
    "id": "ChIJk6YHeB2lfDURIiHaOY_ZamM",
    "name": "가츠시 건대점",
    "location": {
      "lat": 37.546334699999996,
      "lng": 127.0757083
    },
    "rating": 4.6,
    "address": "서울특별시 광진구 화양동 광나루로 418"
  },
  {
    "id": "ChIJ4x4h-fWlfDURu1yQ_ifpBpY",
    "name": "서울호랑이(seoul tiger)",
    "location": {
      "lat": 37.5462035,
      "lng": 127.07494609999999
    },
    "rating": 3,
    "address": "서울특별시 광진구 광나루로20길 13-8 서울호랑이 1층"
  },
  {
    "id": "ChIJQXnFlLGlfDUR-IyoHSmLCsI",
    "name": "돈조은날삽겹살",
    "location": {
      "lat": 37.545975,
      "lng": 127.07601779999999
    },
    "rating": 5,
    "address": "서울특별시 광진구 광나루로24길 6"
  },
  {
    "id": "ChIJWRnAvtukfDURl3ZV9VnA2I4",
    "name": "피자포텐",
    "location": {
      "lat": 37.5459289,
      "lng": 127.07600640000001
    },
    "rating": 4,
    "address": "서울특별시 화양동 496-10번지 1층 광진구 서울특별시 KR"
  },
  {
    "id": "ChIJub3m59ukfDURP4O-mQkhftc",
    "name": "개미집",
    "location": {
      "lat": 37.5459147,
      "lng": 127.07616180000001
    },
    "rating": 3.8,
    "address": "서울특별시 광진구 화양동 495-16"
  },
  {
    "id": "ChIJUwT7yNukfDUR28VlXLrn_W0",
    "name": "ATO Italian Restaurant",
    "location": {
      "lat": 37.546243,
      "lng": 127.0764548
    },
    "rating": 4,
    "address": "서울특별시 광진구 광나루로"
  },
  {
    "id": "ChIJ-_YQv9ukfDURnen9OsuBquk",
    "name": "김밥대학라면학과",
    "location": {
      "lat": 37.5458542,
      "lng": 127.07613519999998
    },
    "rating": 4,
    "address": "서울특별시 화양동 495-10번지 1층 광진구 서울특별시 KR"
  },
  {
    "id": "ChIJqaFoxtukfDURsZINOh9UaVc",
    "name": "래빗홀버거컴퍼니",
    "location": {
      "lat": 37.545992399999996,
      "lng": 127.0765217
    },
    "rating": null,
    "address": "서울특별시 화양동 490-2번지 광진구 서울특별시 KR"
  },
  {
    "id": "ChIJ0ZINxtukfDURildN0FW56mk",
    "name": "래빗홀 버거",
    "location": {
      "lat": 37.5460129,
      "lng": 127.076516
    },
    "rating": 4.6,
    "address": "서울특별시 광진구 광나루로 424"
  },
  {
    "id": "ChIJAU1DTnOlfDUR-kpwfxGy9ds",
    "name": "건우식당",
    "location": {
      "lat": 37.5457985,
      "lng": 127.07678680000001
    },
    "rating": 5,
    "address": "서울특별시 광진구 광나루로 428"
  },
  {
    "id": "ChIJ6abV3CulfDURI0BCF_xEUM0",
    "name": "이층 본점",
    "location": {
      "lat": 37.545800299999996,
      "lng": 127.07649649999999
    },
    "rating": 4,
    "address": "서울특별시 광진구 광나루로24길 13"
  },
  {
    "id": "ChIJPcU9wdukfDURajAwtWK4zA8",
    "name": "도도삼겹",
    "location": {
      "lat": 37.54576050000001,
      "lng": 127.0764815
    },
    "rating": 5,
    "address": "서울특별시 광진구 화양동 495-15번지 1층"
  },
  {
    "id": "ChIJPcU9wdukfDURpPRpGk3doGw",
    "name": "멜팅그릴",
    "location": {
      "lat": 37.54576050000001,
      "lng": 127.0764815
    },
    "rating": 1,
    "address": "서울특별시 화양동 495-15번지 1층 광진구 서울특별시 KR"
  },
  {
    "id": "ChIJW03v6dukfDURDT6qk1PaDII",
    "name": "김애옥할매순대국밥&감자탕",
    "location": {
      "lat": 37.545622,
      "lng": 127.07655439999999
    },
    "rating": 3.4,
    "address": "서울특별시 광진구 화양동 광나루로24길 21"
  },
  {
    "id": "ChIJCzK5ZNmkfDUR0R5AkoN-uvc",
    "name": "케이씨팩토리",
    "location": {
      "lat": 37.545506499999995,
      "lng": 127.07800099999999
    },
    "rating": null,
    "address": "서울특별시 화양동 478-2번지 1층 광진구 서울특별시 KR"
  },
  {
    "id": "ChIJvSkesT2lfDURce8W06iOFwM",
    "name": "카츠백 건대점",
    "location": {
      "lat": 37.5455311,
      "lng": 127.07801810000001
    },
    "rating": 4.5,
    "address": "서울특별시 광진구 광나루로 438"
  },
  {
    "id": "ChIJ_RspbtmkfDURCTkVYtzor44",
    "name": "공룡치킨",
    "location": {
      "lat": 37.5453786,
      "lng": 127.07846319999999
    },
    "rating": null,
    "address": "서울특별시 광진구 화양동 467-1번지 동일빌딩 1층"
  },
  {
    "id": "ChIJW7xgZdmkfDURUcBicZei-BI",
    "name": "다락일식",
    "location": {
      "lat": 37.545392799999995,
      "lng": 127.07825030000001
    },
    "rating": 4.2,
    "address": "서울특별시 광진구 광나루로 440"
  },
  {
    "id": "ChIJyTdIBNmkfDUR7vCdVU567CA",
    "name": "함흥본가면옥 건대점",
    "location": {
      "lat": 37.54515,
      "lng": 127.079849
    },
    "rating": 4,
    "address": "서울특별시 광진구 화양동 302-4"
  },
  {
    "id": "ChIJITyWD9mkfDURMNW9v4owAEo",
    "name": "향원건대지점",
    "location": {
      "lat": 37.5451226,
      "lng": 127.07987689999999
    },
    "rating": 3,
    "address": "서울특별시 광진구 화양동 302-24"
  },
  {
    "id": "ChIJC1DV4O6lfDURSyV4EpuIsAY",
    "name": "원김치찜",
    "location": {
      "lat": 37.5454426,
      "lng": 127.0770784
    },
    "rating": null,
    "address": "서울특별시 광진구 화양동 485-3"
  },
  {
    "id": "ChIJd8MG3dukfDUR1uz72z8lC6Y",
    "name": "(주)야한곱창",
    "location": {
      "lat": 37.5454426,
      "lng": 127.0770784
    },
    "rating": null,
    "address": "서울특별시 광진구 화양동 485-3번지 1층"
  },
  {
    "id": "ChIJ45CewtukfDUROzj4zxOJtak",
    "name": "통큰감자탕",
    "location": {
      "lat": 37.545466499999996,
      "lng": 127.0768586
    },
    "rating": 5,
    "address": "서울특별시 광진구 화양동 507 3번지 1층"
  },
  {
    "id": "ChIJcXoFGnGlfDURvUnhjN0cjw4",
    "name": "사잇집",
    "location": {
      "lat": 37.545575299999996,
      "lng": 127.07687759999999
    },
    "rating": 5,
    "address": "서울특별시 광진구 화양동 188-2"
  },
  {
    "id": "ChIJTcezwtukfDURsKtdRCrgh5E",
    "name": "우리식당",
    "location": {
      "lat": 37.5454331,
      "lng": 127.0769076
    },
    "rating": 4.3,
    "address": "서울특별시 광진구 화양동 507-3"
  },
  {
    "id": "ChIJkUoZTHSlfDUR72V6p37WUQU",
    "name": "고미돈까스 건대본점",
    "location": {
      "lat": 37.5455047,
      "lng": 127.0766804
    },
    "rating": 4.2,
    "address": "서울특별시 광진구 광나루로24길 21 2층"
  },
  {
    "id": "ChIJb5bO3NukfDURqW9MHnJ0d2A",
    "name": "코코도리",
    "location": {
      "lat": 37.5455605,
      "lng": 127.07694910000001
    },
    "rating": 4,
    "address": "서울특별시 광진구 화양동"
  },
  {
    "id": "ChIJW03v6dukfDURI9nY0q5Go_c",
    "name": "비비닭집",
    "location": {
      "lat": 37.545437400000004,
      "lng": 127.07665180000001
    },
    "rating": null,
    "address": "서울특별시 화양동 507-2번지 지하1층 광진구 서울특별시 KR"
  },
  {
    "id": "ChIJAQAAANukfDURXyZp9FOgPug",
    "name": "코끼리들어온집미가",
    "location": {
      "lat": 37.545355099999995,
      "lng": 127.07673989999999
    },
    "rating": 4.1,
    "address": "서울특별시 광진구 화양동 광나루로24길 23"
  },
  {
    "id": "ChIJbS4DvPelfDUR7scOlNvRYCI",
    "name": "밀플랜비 건대점",
    "location": {
      "lat": 37.545588599999995,
      "lng": 127.0766296
    },
    "rating": 4.5,
    "address": "서울특별시 광진구 광나루로24길 15"
  },
  {
    "id": "ChIJr8eMOcSlfDUR80XGtZo2rjY",
    "name": "타이 인 플레이트",
    "location": {
      "lat": 37.545588599999995,
      "lng": 127.0766296
    },
    "rating": 4.2,
    "address": "서울특별시 광진구 화양동 광나루로24길 15"
  },
  {
    "id": "ChIJrU4lwtukfDURTzHFKYZzRqA",
    "name": "7스테이크",
    "location": {
      "lat": 37.545588599999995,
      "lng": 127.0766296
    },
    "rating": null,
    "address": "서울특별시 화양동 507-6번지 광진구 서울특별시 KR"
  },
  {
    "id": "ChIJ1Ubi59ukfDURxPvrX0YLfYM",
    "name": "풍년가마",
    "location": {
      "lat": 37.5453641,
      "lng": 127.0769538
    },
    "rating": null,
    "address": "서울특별시 광진구 화양동 508-4"
  },
  {
    "id": "ChIJRYP759ukfDURnmCzc_s_tPE",
    "name": "왕소구이",
    "location": {
      "lat": 37.5453416,
      "lng": 127.0769478
    },
    "rating": 4.5,
    "address": "서울특별시 광진구 화양동 508-4"
  },
  {
    "id": "ChIJ0VThQ1SlfDURArwKXcJYJLI",
    "name": "개미집 3",
    "location": {
      "lat": 37.5453167,
      "lng": 127.07676649999998
    },
    "rating": 4.4,
    "address": "서울특별시 광진구 화양동 195-27"
  },
  {
    "id": "ChIJV_QN8K-lfDURPtMythMIDTE",
    "name": "원스테이크",
    "location": {
      "lat": 37.5455675,
      "lng": 127.07656509999998
    },
    "rating": 1,
    "address": "서울특별시 광진구 광나루로24길 15"
  },
  {
    "id": "ChIJLSrR9t-lfDURYhPMr_aY3JY",
    "name": "미미타코야끼&카페",
    "location": {
      "lat": 37.5451771,
      "lng": 127.0768238
    },
    "rating": null,
    "address": "서울특별시 광진구 광나루로24길 29 1층"
  },
  {
    "id": "ChIJLwva6NukfDURVrqqHd9Ov7M",
    "name": "홍콩",
    "location": {
      "lat": 37.5451763,
      "lng": 127.07678289999998
    },
    "rating": 3.6,
    "address": "서울특별시 광진구 화양동 광나루로24길 29"
  },
  {
    "id": "ChIJ4_mtxNelfDURbzq0jhk3JTg",
    "name": "길이식당",
    "location": {
      "lat": 37.5455563,
      "lng": 127.0762828
    },
    "rating": 4.6,
    "address": "서울특별시 광진구 화양동 광나루로24길 18"
  },
  {
    "id": "ChIJs4fgn96lfDURfgyEQawfbJE",
    "name": "라멘트럭 건대점",
    "location": {
      "lat": 37.5457171,
      "lng": 127.0759183
    },
    "rating": 5,
    "address": "서울특별시 광진구 광나루로22가길 18 102호"
  },
  {
    "id": "ChIJ9910ltukfDUR59q9OSTFDIs",
    "name": "소녀감성포차",
    "location": {
      "lat": 37.545671299999995,
      "lng": 127.0759066
    },
    "rating": null,
    "address": "서울특별시 광진구 화양동 496-4번지 1층"
  },
  {
    "id": "ChIJ9910ltukfDURdoxVwGNaFi4",
    "name": "건국갈비",
    "location": {
      "lat": 37.545671299999995,
      "lng": 127.0759066
    },
    "rating": 4,
    "address": "서울특별시 광진구 광나루로22가길 18 1 층"
  },
  {
    "id": "ChIJS7j1H0K7fDURTipARA6M-Hw",
    "name": "타스더안주셀렉트샵",
    "location": {
      "lat": 37.5454625,
      "lng": 127.0763861
    },
    "rating": 5,
    "address": "서울특별시 광진구 광나루로24길 20"
  },
  {
    "id": "ChIJQa2eJAClfDUR2nePrtgtyfY",
    "name": "금쪽삼겹",
    "location": {
      "lat": 37.5453993,
      "lng": 127.076149
    },
    "rating": 5,
    "address": "서울특별시 광진구 능동로16길 57 금쪽삼겹 1층"
  },
  {
    "id": "ChIJvXy75wilfDURU2oVUqgjFCI",
    "name": "하루 건대후문점",
    "location": {
      "lat": 37.5452307,
      "lng": 127.0762961
    },
    "rating": 3,
    "address": "서울특별시 광진구 능동로16길 60"
  },
  {
    "id": "ChIJ-XRwk9ukfDUR9L7u4XxkNhI",
    "name": "부대사랑",
    "location": {
      "lat": 37.5453441,
      "lng": 127.07612229999998
    },
    "rating": 4,
    "address": "서울특별시 광진구 화양동 495 23번지"
  },
  {
    "id": "ChIJ-XRwk9ukfDURBl05t3mgGHw",
    "name": "오사카돈가스",
    "location": {
      "lat": 37.5453441,
      "lng": 127.07612229999998
    },
    "rating": null,
    "address": "서울특별시 광진구 화양동 495-23번지 2층"
  },
  {
    "id": "ChIJ-XRwk9ukfDURjVJky1hGuRE",
    "name": "짱돈까스분식",
    "location": {
      "lat": 37.5453441,
      "lng": 127.07612229999998
    },
    "rating": null,
    "address": "서울특별시 화양동 495-23번지 2층 광진구 서울특별시 KR"
  },
  {
    "id": "ChIJAV1-7NukfDURVbdi8bgIQ5k",
    "name": "이삭토스트 건대점",
    "location": {
      "lat": 37.545255499999996,
      "lng": 127.07642999999999
    },
    "rating": 4.3,
    "address": "서울특별시 광진구 화양동 495-26"
  },
  {
    "id": "ChIJG1B-7NukfDURtg_I4w0F_oY",
    "name": "가람성",
    "location": {
      "lat": 37.545255499999996,
      "lng": 127.07642999999999
    },
    "rating": 3.5,
    "address": "서울특별시 광진구 화양동 광나루로24길 22"
  },
  {
    "id": "ChIJWe3W7NukfDURASyRnEIYAwg",
    "name": "피시마루",
    "location": {
      "lat": 37.5451903,
      "lng": 127.0762803
    },
    "rating": null,
    "address": "서울특별시 화양동 495-25번지 3층 광진구 서울특별시 KR"
  },
  {
    "id": "ChIJWe3W7NukfDURFIWRiod5Fi0",
    "name": "콩닭콩닭",
    "location": {
      "lat": 37.5451903,
      "lng": 127.0762803
    },
    "rating": 4.3,
    "address": "서울특별시 화양동 495-25번지 광진구 서울특별시 KR"
  },
  {
    "id": "ChIJI5xk_e-lfDURFZwRnwMSXiE",
    "name": "개미집투",
    "location": {
      "lat": 37.5451903,
      "lng": 127.0762803
    },
    "rating": 4.2,
    "address": "서울특별시 광진구 화양동 능동로16길 60"
  },
  {
    "id": "ChIJ_7m_k9ukfDURiTOqAU7BsYI",
    "name": "샘터골",
    "location": {
      "lat": 37.5453441,
      "lng": 127.0760102
    },
    "rating": 4.3,
    "address": "서울특별시 광진구 화양동"
  },
  {
    "id": "ChIJxbvrHgClfDURjVQfMaPMm5E",
    "name": "부리또피아",
    "location": {
      "lat": 37.54532590000001,
      "lng": 127.07588519999999
    },
    "rating": 4,
    "address": "서울특별시 광진구 능동로16길 51 효일약국"
  },
  {
    "id": "ChIJg33xjdukfDURus-uQT1Ka-c",
    "name": "지지고",
    "location": {
      "lat": 37.545118599999995,
      "lng": 127.0759813
    },
    "rating": null,
    "address": "서울특별시 화양동 513번지 1층 광진구 서울특별시 KR"
  },
  {
    "id": "ChIJg33xjdukfDURIy8B7sr84Rk",
    "name": "맘마킹도시락",
    "location": {
      "lat": 37.545118599999995,
      "lng": 127.0759813
    },
    "rating": null,
    "address": "서울특별시 화양동 513번지 1층 광진구 서울특별시 KR"
  },
  {
    "id": "ChIJg33xjdukfDURhTbGvCS--Ag",
    "name": "오떡순클럽",
    "location": {
      "lat": 37.545118599999995,
      "lng": 127.0759813
    },
    "rating": null,
    "address": "서울특별시 화양동 513번지 화양동 광진구 서울특별시 KR"
  },
  {
    "id": "ChIJD4eWkdukfDURsWh1lG6HmFY",
    "name": "불난떡볶이건대점",
    "location": {
      "lat": 37.545285199999995,
      "lng": 127.0758457
    },
    "rating": 4.5,
    "address": "서울특별시 화양동 504-2번지 1층 광진구 서울특별시 KR"
  },
  {
    "id": "ChIJU4bGi9ukfDURULFAeSy4daA",
    "name": "양수리냉면",
    "location": {
      "lat": 37.5447564,
      "lng": 127.07598349999999
    },
    "rating": null,
    "address": "서울특별시 광진구 화양동 번지 1층 427-3"
  },
  {
    "id": "ChIJ2VPD8ZWlfDURHkHcuXi-Hhc",
    "name": "위락밥집",
    "location": {
      "lat": 37.54504480000001,
      "lng": 127.07587020000001
    },
    "rating": 4.3,
    "address": "서울특별시 광진구 화양동 능동로16길 50"
  },
  {
    "id": "ChIJqZRijtukfDURgDNEalfVjlA",
    "name": "밥스밥스",
    "location": {
      "lat": 37.54504480000001,
      "lng": 127.07587020000001
    },
    "rating": 5,
    "address": "서울특별시 화양동 514번지 2층 광진구 서울특별시 KR"
  },
  {
    "id": "ChIJAQ1VraOlfDURwNjIVBNmig0",
    "name": "화원식당",
    "location": {
      "lat": 37.5450288,
      "lng": 127.07607120000002
    },
    "rating": 4.8,
    "address": "서울특별시 광진구 화양동 513-1"
  },
  {
    "id": "ChIJAQAAANukfDURzN8kdTKEVmA",
    "name": "소문난닭칼국수닭곰탕",
    "location": {
      "lat": 37.5450229,
      "lng": 127.0756759
    },
    "rating": 4,
    "address": "서울특별시 광진구 능동로16길 48"
  },
  {
    "id": "ChIJXR9Hj9ukfDURa4P4P6nxjUk",
    "name": "버거쿡",
    "location": {
      "lat": 37.5450233,
      "lng": 127.0756577
    },
    "rating": null,
    "address": "서울특별시 화양동 515번지 광진구 서울특별시 KR"
  },
  {
    "id": "ChIJXR9Hj9ukfDUR7uVgsujy4bg",
    "name": "알촌",
    "location": {
      "lat": 37.5450233,
      "lng": 127.0756577
    },
    "rating": 4.5,
    "address": "서울특별시 광진구 화양동 515"
  },
  {
    "id": "ChIJP3Yoh9ukfDUR8IugICOHUqw",
    "name": "진성식당",
    "location": {
      "lat": 37.5450164,
      "lng": 127.07546660000001
    },
    "rating": 4,
    "address": "서울특별시 광진구 화양동 516-2"
  },
  {
    "id": "ChIJP3Yoh9ukfDURF4h7pfLesYI",
    "name": "신통치킨",
    "location": {
      "lat": 37.544958199999996,
      "lng": 127.07528959999999
    },
    "rating": 3.6,
    "address": "서울특별시 화양동 516-5번지 1층 광진구 서울특별시 KR"
  },
  {
    "id": "ChIJG1gmh9ukfDUREiTLc0e2Sks",
    "name": "진성가야지",
    "location": {
      "lat": 37.544958199999996,
      "lng": 127.07528959999999
    },
    "rating": 4,
    "address": "서울특별시 광진구 화양동 516-5"
  },
  {
    "id": "ChIJS21PgNukfDURwiyaMVcWKIw",
    "name": "쌍둥이네칼국수",
    "location": {
      "lat": 37.5450291,
      "lng": 127.0750251
    },
    "rating": 4.6,
    "address": "서울특별시 화양동 500-3번지 1층 광진구 서울특별시 KR"
  },
  {
    "id": "ChIJHfRDRQClfDURZl2v_L72h3U",
    "name": "페르바코",
    "location": {
      "lat": 37.5447309,
      "lng": 127.07481969999999
    },
    "rating": 5,
    "address": "서울특별시 광진구 능동로16길 30"
  },
  {
    "id": "ChIJbyDundykfDURlA-jjxrfDVk",
    "name": "용달맛집",
    "location": {
      "lat": 37.5452677,
      "lng": 127.07396399999999
    },
    "rating": null,
    "address": "서울특별시 광진구 화양동 111 41번지 102호"
  },
  {
    "id": "ChIJN2XPodykfDURSAkZSv0759Q",
    "name": "팍스그릴",
    "location": {
      "lat": 37.5452891,
      "lng": 127.07351639999999
    },
    "rating": 4.4,
    "address": "서울특별시 광진구 화양동 94-25"
  },
  {
    "id": "ChIJ9WTTJQClfDURmPJOXBZc1Lg",
    "name": "아미고 프란고",
    "location": {
      "lat": 37.5455172,
      "lng": 127.0735308
    },
    "rating": null,
    "address": "서울특별시 광진구 능동로 168"
  },
  {
    "id": "ChIJmQLZ7dGkfDUROTWF9RQPyJI",
    "name": "예가샌드위치",
    "location": {
      "lat": 37.5541167,
      "lng": 127.0732468
    },
    "rating": null,
    "address": "서울특별시 광진구 군자동 146-7번지 1층"
  },
  {
    "id": "ChIJtSNq7NGkfDUR3LtJN9X8GqE",
    "name": "(1970)추억의수제돈까스",
    "location": {
      "lat": 37.5539588,
      "lng": 127.0733393
    },
    "rating": null,
    "address": "서울특별시 광진구 군자동 146 10번지 1층"
  },
  {
    "id": "ChIJtSNq7NGkfDURUSP90nYXCyk",
    "name": "부어치킨",
    "location": {
      "lat": 37.5539588,
      "lng": 127.0733393
    },
    "rating": null,
    "address": "서울특별시 광진구 군자동 146-10번지 1층"
  },
  {
    "id": "ChIJbyn0sl2lfDURtoQaEiM52Hw",
    "name": "라뮤즈",
    "location": {
      "lat": 37.5512523,
      "lng": 127.0760341
    },
    "rating": 4.6,
    "address": "서울특별시 광진구 능동로 237 1층"
  },
  {
    "id": "ChIJpSB44dCkfDURfwX5hQeM4jc",
    "name": "천미향",
    "location": {
      "lat": 37.5512829,
      "lng": 127.07612970000001
    },
    "rating": 3.8,
    "address": "서울특별시 광진구 군자동 능동로 237"
  },
  {
    "id": "ChIJYQsOSNCkfDUR8dGOwKmUnQ4",
    "name": "빅베어8",
    "location": {
      "lat": 37.5510076,
      "lng": 127.07583249999998
    },
    "rating": 2.9,
    "address": "서울특별시 광진구 능동로 209"
  },
  {
    "id": "ChIJsQ6cgE2lfDURGIwY61NcBGY",
    "name": "bigbare8",
    "location": {
      "lat": 37.5509854,
      "lng": 127.075783
    },
    "rating": 5,
    "address": "서울특별시 광진구 군자동 310"
  },
  {
    "id": "ChIJzd1P5mmlfDURs--U-pTCZdI",
    "name": "오스테리아현",
    "location": {
      "lat": 37.5512739,
      "lng": 127.07638989999998
    },
    "rating": 4.1,
    "address": "서울특별시 광진구 능동로 237"
  },
  {
    "id": "ChIJOXz9PNGkfDURW3SNqNYTErY",
    "name": "하이난",
    "location": {
      "lat": 37.552010599999996,
      "lng": 127.07640479999999
    },
    "rating": 4,
    "address": "서울특별시 광진구 군자동 228"
  },
  {
    "id": "ChIJpzHMPtGkfDURghtkMRcS_WI",
    "name": "만나정",
    "location": {
      "lat": 37.5522328,
      "lng": 127.0765714
    },
    "rating": 5,
    "address": "서울특별시 광진구 군자동 235"
  },
  {
    "id": "ChIJB3oYOdGkfDURNA9abAdSkwk",
    "name": "버거킹 군자능동점",
    "location": {
      "lat": 37.5522223,
      "lng": 127.07660299999999
    },
    "rating": 4.2,
    "address": "서울특별시 광진구 능동로 245"
  },
  {
    "id": "ChIJWyGORtGkfDURN3CwfKaRzSk",
    "name": "스타초밥참치",
    "location": {
      "lat": 37.5526103,
      "lng": 127.0767161
    },
    "rating": null,
    "address": "서울특별시 군자동 244번지 1층 광진구 서울특별시 KR"
  },
  {
    "id": "ChIJM3iRriilfDURzY7kYaFUM7U",
    "name": "카레당",
    "location": {
      "lat": 37.552606399999995,
      "lng": 127.0767455
    },
    "rating": 4.3,
    "address": "서울특별시 광진구 1층"
  },
  {
    "id": "ChIJp2i0WtGkfDUR9vTt0aRyykk",
    "name": "한촌설렁탕군자점",
    "location": {
      "lat": 37.552906899999996,
      "lng": 127.0768574
    },
    "rating": 3.7,
    "address": "서울특별시 광진구 군자동 242번지 1층"
  },
  {
    "id": "ChIJ8Xlj99OkfDUR2syIFWoaiHo",
    "name": "유한회사더블랑드",
    "location": {
      "lat": 37.5538751,
      "lng": 127.07737619999999
    },
    "rating": null,
    "address": "서울특별시 광진구 군자동 번지 8층 2-51 영진빌딩"
  },
  {
    "id": "ChIJh3qjbWulfDURwXEF_gZFBMo",
    "name": "소사면옥",
    "location": {
      "lat": 37.5540374,
      "lng": 127.0780827
    },
    "rating": 4.2,
    "address": "서울특별시 광진구 능동 283-7"
  },
  {
    "id": "ChIJyQqC9dOkfDURkaYlPbYR24I",
    "name": "고봉민김밥인 서울군자점",
    "location": {
      "lat": 37.554220799999996,
      "lng": 127.07756889999999
    },
    "rating": 3.3,
    "address": "서울특별시 광진구 군자동 능동로 271"
  },
  {
    "id": "ChIJYfxNdQOlfDURX0xRsg1B154",
    "name": "숙성부심",
    "location": {
      "lat": 37.5543578,
      "lng": 127.07765830000001
    },
    "rating": 4.2,
    "address": "서울특별시 광진구 군자동 2-1"
  },
  {
    "id": "ChIJNdbQkJSlfDURuQXQvkGl1Bo",
    "name": "군자돈까스",
    "location": {
      "lat": 37.5544067,
      "lng": 127.07830220000001
    },
    "rating": 4.3,
    "address": "서울특별시 광진구 능동로 276"
  },
  {
    "id": "ChIJ7etLl_ulfDURLpo6t8AWauo",
    "name": "서울돼지구이",
    "location": {
      "lat": 37.553505099999995,
      "lng": 127.07784219999999
    },
    "rating": 3.8,
    "address": "서울특별시 광진구 능동로 264"
  },
  {
    "id": "ChIJZTT7J4ulfDURWLy8bw1LCW4",
    "name": "파파존스 광진점",
    "location": {
      "lat": 37.553605,
      "lng": 127.07786959999999
    },
    "rating": 3,
    "address": "서울특별시 광진구 능동로 266"
  },
  {
    "id": "ChIJbYmNUtGkfDURCpoi6GumoW0",
    "name": "콩심닭강정",
    "location": {
      "lat": 37.5527324,
      "lng": 127.07746840000001
    },
    "rating": null,
    "address": "서울특별시 광진구 능동 번지 1층 315-2"
  },
  {
    "id": "ChIJ-aLMKPClfDURUcu9oOra8fI",
    "name": "콩심콩나물국밥",
    "location": {
      "lat": 37.5527324,
      "lng": 127.07746840000001
    },
    "rating": 4.1,
    "address": "서울특별시 광진구 능동 315-2"
  },
  {
    "id": "ChIJ62WoTdGkfDUR7JI7Aol15_0",
    "name": "진한방삼계탕 군자점",
    "location": {
      "lat": 37.552583999999996,
      "lng": 127.07739670000001
    },
    "rating": 4.3,
    "address": "서울특별시 광진구 능동 315-3"
  },
  {
    "id": "ChIJ5fBvfOilfDURmDFhQtJO34U",
    "name": "미스코다리 미스터황태",
    "location": {
      "lat": 37.5519353,
      "lng": 127.0770971
    },
    "rating": 4.1,
    "address": "서울특별시 광진구 능동로 246"
  },
  {
    "id": "ChIJ4Xk7RKClfDURUhBI8565VRE",
    "name": "카츠 헤세드 어린이대공원점",
    "location": {
      "lat": 37.5519284,
      "lng": 127.07705650000001
    },
    "rating": 3.6,
    "address": "서울특별시 광진구 능동로 246 카츠 헤세드 2층"
  },
  {
    "id": "ChIJAQVtSAClfDURkWjg3s8wDAM",
    "name": "쾌남막창",
    "location": {
      "lat": 37.553724599999995,
      "lng": 127.0735316
    },
    "rating": null,
    "address": "서울특별시 광진구 군자로15길 2 1층"
  },
  {
    "id": "ChIJ78rY6tGkfDURBUsXXLyVHB4",
    "name": "곱창하우스",
    "location": {
      "lat": 37.553716699999995,
      "lng": 127.07354119999998
    },
    "rating": 5,
    "address": "서울특별시 군자동 149-3번지 광진구 서울특별시 KR"
  },
  {
    "id": "ChIJ94-cJ12lfDURHJf28vFsZQA",
    "name": "빅브라덜스버거",
    "location": {
      "lat": 37.5536683,
      "lng": 127.07361349999998
    },
    "rating": 4.8,
    "address": "서울특별시 광진구 군자로 127 2 층"
  },
  {
    "id": "ChIJa7culdGkfDURlDqvCeEZ9Pk",
    "name": "썬더치킨",
    "location": {
      "lat": 37.553652899999996,
      "lng": 127.0736673
    },
    "rating": 3.7,
    "address": "대한민국 서울특별시"
  },
  {
    "id": "ChIJq6sYEMulfDURUCgoQLxdthM",
    "name": "마라강호 마라탕",
    "location": {
      "lat": 37.5536337,
      "lng": 127.07359679999999
    },
    "rating": 3.5,
    "address": "서울특별시 군자동 149-6번지 1호 광진구 서울특별시 KR"
  },
  {
    "id": "ChIJa7culdGkfDURK2iFWCcmnOs",
    "name": "빨간떡볶이샵",
    "location": {
      "lat": 37.5536337,
      "lng": 127.07359679999999
    },
    "rating": null,
    "address": "서울특별시 군자동 149-6번지 2층 광진구 서울특별시 KR"
  },
  {
    "id": "ChIJxzGOk9GkfDURu5n-T7DK5dU",
    "name": "손수제치킨",
    "location": {
      "lat": 37.5537596,
      "lng": 127.07379329999999
    },
    "rating": 4.4,
    "address": "서울특별시 광진구 군자동 150-14번지 1층"
  },
  {
    "id": "ChIJyf-UkdGkfDUR5V7GwEf_2sc",
    "name": "샐러드쿡",
    "location": {
      "lat": 37.5538656,
      "lng": 127.0739799
    },
    "rating": null,
    "address": "서울특별시 광진구 군자동 150 12번지 1층"
  },
  {
    "id": "ChIJNVWpOQClfDURgAcRsehBVT0",
    "name": "디델리 세종대점",
    "location": {
      "lat": 37.5534907,
      "lng": 127.07376739999998
    },
    "rating": 3,
    "address": "서울특별시 광진구 군자로 128"
  },
  {
    "id": "ChIJaxFgf46lfDURWXMkg8Ex8AE",
    "name": "카츠모",
    "location": {
      "lat": 37.5537436,
      "lng": 127.0743373
    },
    "rating": 5,
    "address": "서울특별시 광진구 군자로 132"
  },
  {
    "id": "ChIJP_ZKRb2lfDUROZegMojBOU4",
    "name": "옥돌바베큐",
    "location": {
      "lat": 37.553927699999996,
      "lng": 127.0746616
    },
    "rating": null,
    "address": "서울특별시 광진구 군자로 138 1층"
  },
  {
    "id": "ChIJt-HBg9GkfDUR-3hx_4EOJkw",
    "name": "국수사랑채",
    "location": {
      "lat": 37.553927699999996,
      "lng": 127.0746616
    },
    "rating": 4.4,
    "address": "서울특별시 군자동 64-9번지 1층 광진구 서울특별시 KR"
  },
  {
    "id": "ChIJfw9jhtGkfDURJMFga4hfc64",
    "name": "공주식당",
    "location": {
      "lat": 37.5541257,
      "lng": 127.0743966
    },
    "rating": 4.4,
    "address": "서울특별시 군자동 64-1번지 광진구 서울특별시 KR"
  },
  {
    "id": "ChIJfw9jhtGkfDURhqi-lHUIgqM",
    "name": "장원칼국수",
    "location": {
      "lat": 37.5541257,
      "lng": 127.0743966
    },
    "rating": 4.3,
    "address": "서울특별시 광진구 군자동 64-1"
  },
  {
    "id": "ChIJjbZlvbKlfDURd9bkSE8CSWM",
    "name": "군자교",
    "location": {
      "lat": 37.5541738,
      "lng": 127.0750168
    },
    "rating": 4.1,
    "address": "서울특별시 광진구 군자동 군자로 140"
  },
  {
    "id": "ChIJy2cyftGkfDURIrGFfVGU-tM",
    "name": "푸라닭군자점",
    "location": {
      "lat": 37.5540762,
      "lng": 127.0750932
    },
    "rating": 4,
    "address": "서울특별시 광진구 군자동 65-3 번지 에이동 1층 7호 호"
  },
  {
    "id": "ChIJ-7sXhqmlfDUR9_JH7sekOgo",
    "name": "이가네바지락칼국수",
    "location": {
      "lat": 37.5540762,
      "lng": 127.0750932
    },
    "rating": 5,
    "address": "서울특별시 광진구 군자로 140"
  },
  {
    "id": "ChIJy2cyftGkfDURtejKQWrGpMk",
    "name": "삼거리닭발",
    "location": {
      "lat": 37.5540762,
      "lng": 127.0750932
    },
    "rating": null,
    "address": "대한민국 서울특별시"
  },
  {
    "id": "ChIJXegAPhilfDURLVIHUdskTC4",
    "name": "뚱스들의요란한덮밥",
    "location": {
      "lat": 37.5540762,
      "lng": 127.0750932
    },
    "rating": null,
    "address": "서울특별시 광진구 군자동 군자로 140"
  },
  {
    "id": "ChIJEYTZSp-lfDURqPPZD9g0wsg",
    "name": "옛날멸치국수",
    "location": {
      "lat": 37.5540762,
      "lng": 127.0750932
    },
    "rating": 5,
    "address": "서울특별시 광진구 군자동 군자로 140 1층"
  },
  {
    "id": "ChIJy2cyftGkfDURI_w0wUb8PKM",
    "name": "오래오래포차",
    "location": {
      "lat": 37.5540762,
      "lng": 127.0750932
    },
    "rating": null,
    "address": "서울특별시 군자동 65-3번지 A동 광진구 서울특별시 KR"
  },
  {
    "id": "ChIJzYYO-aOlfDUR1EBzxeNItKM",
    "name": "미스터육회연어왕 군자점",
    "location": {
      "lat": 37.5542334,
      "lng": 127.07511129999999
    },
    "rating": null,
    "address": "서울특별시 광진구 군자로 140"
  },
  {
    "id": "ChIJF9mC1tOkfDURNomZ8kC1Pdw",
    "name": "부자",
    "location": {
      "lat": 37.5542333,
      "lng": 127.0752576
    },
    "rating": null,
    "address": "서울특별시 군자동 66-9번지 1층 광진구 서울특별시 KR"
  },
  {
    "id": "ChIJN8qqLNKkfDURqt_6HcXQzCc",
    "name": "60계서울군자점",
    "location": {
      "lat": 37.5544757,
      "lng": 127.0749117
    },
    "rating": 3,
    "address": "서울특별시 광진구 군자동 번지 1층 48-59"
  },
  {
    "id": "ChIJkYTkS6SlfDURhU2NeDWorFY",
    "name": "물고기",
    "location": {
      "lat": 37.5544757,
      "lng": 127.0749117
    },
    "rating": 4.4,
    "address": "서울특별시 광진구 군자동 48-59"
  },
  {
    "id": "ChIJg1FVK9KkfDUR5KujYOGzPPY",
    "name": "본가김밥",
    "location": {
      "lat": 37.5544757,
      "lng": 127.0749117
    },
    "rating": null,
    "address": "서울특별시 광진구 군자동 48-59"
  },
  {
    "id": "ChIJJa-e0tOkfDURZFT0AmobhlQ",
    "name": "우총각돈처녀",
    "location": {
      "lat": 37.554704699999995,
      "lng": 127.07501599999999
    },
    "rating": null,
    "address": "서울특별시 광진구 군자동 48-20"
  },
  {
    "id": "ChIJXbhOMAClfDURpVUhB6Pb0zM",
    "name": "오가야",
    "location": {
      "lat": 37.554859900000004,
      "lng": 127.07511579999999
    },
    "rating": null,
    "address": "서울특별시 광진구 군자동 48-37"
  },
  {
    "id": "ChIJfdz8ytOkfDUR64DMzutg5t4",
    "name": "모과나무집",
    "location": {
      "lat": 37.5551543,
      "lng": 127.07504249999998
    },
    "rating": null,
    "address": "서울특별시 광진구 군자동 48-40번지 2층"
  },
  {
    "id": "ChIJedXny9OkfDURRqZWCXtHGzQ",
    "name": "꿉자",
    "location": {
      "lat": 37.555003299999996,
      "lng": 127.07520620000001
    },
    "rating": null,
    "address": "서울특별시 광진구 군자동 48-35번지 1층"
  },
  {
    "id": "ChIJedXny9OkfDURD3ZBuu13_0Q",
    "name": "마쇼마쇼",
    "location": {
      "lat": 37.555003299999996,
      "lng": 127.07520620000001
    },
    "rating": 3.5,
    "address": "서울특별시 군자동 48-35번지 1층 광진구 서울특별시 KR"
  },
  {
    "id": "ChIJ1y7OytOkfDURDIuVGKM0V8I",
    "name": "양자강",
    "location": {
      "lat": 37.5552175,
      "lng": 127.07494220000001
    },
    "rating": 4.3,
    "address": "대한민국 서울특별시"
  },
  {
    "id": "ChIJSWdPJNKkfDUR1aeIlPT6pJQ",
    "name": "청목원",
    "location": {
      "lat": 37.554885999999996,
      "lng": 127.07403400000001
    },
    "rating": null,
    "address": "서울특별시 광진구 군자동 154 16번지"
  },
  {
    "id": "ChIJS-GRPM6kfDUREgVSUp3dONM",
    "name": "페리카나",
    "location": {
      "lat": 37.5540646,
      "lng": 127.07143549999999
    },
    "rating": 3.2,
    "address": "서울특별시 광진구 군자동 125-13"
  },
  {
    "id": "ChIJ3XHP4tGkfDURTFGFBaDB7s0",
    "name": "파다닭치킨",
    "location": {
      "lat": 37.5545087,
      "lng": 127.0723354
    },
    "rating": null,
    "address": "서울특별시 광진구 군자동 117-13"
  },
  {
    "id": "ChIJf69aHc6kfDURG7uS2ikOog0",
    "name": "네네치킨",
    "location": {
      "lat": 37.5545616,
      "lng": 127.07219099999999
    },
    "rating": null,
    "address": "서울특별시 군자동 117-23번지 1층 광진구 서울특별시 KR"
  },
  {
    "id": "ChIJf69aHc6kfDURkiIK-zgPuYE",
    "name": "호세야오리바베큐",
    "location": {
      "lat": 37.5545616,
      "lng": 127.07219099999999
    },
    "rating": 5,
    "address": "서울특별시 군자동 117-23번지 광진구 서울특별시 KR"
  },
  {
    "id": "ChIJDV-7GgClfDURNZAz3x1KUjI",
    "name": "담미온 군자송정점",
    "location": {
      "lat": 37.5547373,
      "lng": 127.07139249999999
    },
    "rating": 3,
    "address": "서울특별시 광진구 군자동 134-5"
  },
  {
    "id": "ChIJi7_H0OGlfDURrFOTWIquwLQ",
    "name": "미건테이블",
    "location": {
      "lat": 37.5546844,
      "lng": 127.0713321
    },
    "rating": 4,
    "address": "서울특별시 광진구 동일로 260"
  },
  {
    "id": "ChIJ4Sc6Ec6kfDURT47FwyQkgG4",
    "name": "홍대울트라쪽갈비앤홍두깨살김치찌개",
    "location": {
      "lat": 37.554668299999996,
      "lng": 127.07132949999999
    },
    "rating": 5,
    "address": "서울특별시 광진구 군자동 130-8번지 1층"
  },
  {
    "id": "ChIJHR5IG86kfDURf4DjO9OXhdY",
    "name": "오복식당",
    "location": {
      "lat": 37.5547055,
      "lng": 127.07181119999998
    },
    "rating": null,
    "address": "서울특별시 군자동 117-34번지 광진구 서울특별시 KR"
  },
  {
    "id": "ChIJF2km4sOkfDUR0KjOAgzRdQ0",
    "name": "깜닭치킨 화양점",
    "location": {
      "lat": 37.547165799999995,
      "lng": 127.0670498
    },
    "rating": null,
    "address": "서울특별시 광진구 동일로 170"
  },
  {
    "id": "ChIJ8aDL98OkfDURSCJPOa22okM",
    "name": "포끼루끼",
    "location": {
      "lat": 37.547049799999996,
      "lng": 127.0669581
    },
    "rating": 4.2,
    "address": "서울특별시 화양동 23-3번지 1층 광진구 서울특별시 KR"
  },
  {
    "id": "ChIJuwWI4cOkfDUR8or0UusvoBw",
    "name": "맛고향해장국",
    "location": {
      "lat": 37.5469832,
      "lng": 127.06698920000001
    },
    "rating": null,
    "address": "서울특별시 광진구 화양동 23-39"
  },
  {
    "id": "ChIJc0bPWAClfDURZn8Jg9m4Nhs",
    "name": "스시오가",
    "location": {
      "lat": 37.546853399999996,
      "lng": 127.0670718
    },
    "rating": null,
    "address": "서울특별시 광진구 능동로 69 1층 120호"
  },
  {
    "id": "ChIJacUP4cOkfDURx_QYUh0qUfc",
    "name": "봉쉐프의옛날수제돈까스",
    "location": {
      "lat": 37.546853399999996,
      "lng": 127.0670718
    },
    "rating": 4.5,
    "address": "서울특별시 광진구 화양동 23-40번지 1층"
  },
  {
    "id": "ChIJacUP4cOkfDURCQP2_nqG1BM",
    "name": "진수성찬",
    "location": {
      "lat": 37.546853399999996,
      "lng": 127.0670718
    },
    "rating": null,
    "address": "서울특별시 화양동 23-40번지 1층 광진구 서울특별시 KR"
  },
  {
    "id": "ChIJbVK6HgClfDURekedquZL3sI",
    "name": "노산서 도삭면",
    "location": {
      "lat": 37.5467388,
      "lng": 127.06691590000001
    },
    "rating": 4,
    "address": "서울특별시"
  },
  {
    "id": "ChIJEUAIYMGkfDUR3VOyx10Q8l8",
    "name": "어사랑횟집",
    "location": {
      "lat": 37.5467546,
      "lng": 127.0668179
    },
    "rating": 4,
    "address": "서울특별시 광진구 화양동 동일로 164"
  },
  {
    "id": "ChIJc_IEYMGkfDURtXsKfczZwL4",
    "name": "로제찜닭",
    "location": {
      "lat": 37.5467227,
      "lng": 127.0668381
    },
    "rating": null,
    "address": "대한민국 서울특별시"
  },
  {
    "id": "ChIJc_IEYMGkfDUR_3RDXIdDaos",
    "name": "해사랑",
    "location": {
      "lat": 37.5467227,
      "lng": 127.0668381
    },
    "rating": null,
    "address": "서울특별시 화양동 24-1번지 1층 광진구 서울특별시 KR"
  },
  {
    "id": "ChIJiTxa5sOkfDURvKRBWyNuunI",
    "name": "탐나는돈",
    "location": {
      "lat": 37.54673520000001,
      "lng": 127.06739239999999
    },
    "rating": 4,
    "address": "대한민국 서울특별시"
  },
  {
    "id": "ChIJcQlKv1KlfDURzs4zejFgwp0",
    "name": "칼리튜나코리아",
    "location": {
      "lat": 37.5467351,
      "lng": 127.0676173
    },
    "rating": null,
    "address": "서울특별시 광진구 광나루로12길 19 1층"
  },
  {
    "id": "ChIJd-686MOkfDUR_iCqmZZ8RTk",
    "name": "숙성회&손두부",
    "location": {
      "lat": 37.5467078,
      "lng": 127.0675852
    },
    "rating": null,
    "address": "서울특별시 광진구 화양동 번지 지하 20-25 1층"
  },
  {
    "id": "ChIJF-DfqwSlfDUR-_dyizBynNg",
    "name": "BBQ치킨 화양점 (올리브치킨)",
    "location": {
      "lat": 37.5467078,
      "lng": 127.0675852
    },
    "rating": null,
    "address": "서울특별시 광진구 광나루로12길 19"
  },
  {
    "id": "ChIJd-686MOkfDURSUe_X0fSRaE",
    "name": "원조숯불소금구이",
    "location": {
      "lat": 37.546620499999996,
      "lng": 127.06763240000001
    },
    "rating": 4.2,
    "address": "서울특별시 광진구 화양동 광나루로12길 19"
  },
  {
    "id": "ChIJHTBA3cOkfDURl8nnaNRr7lU",
    "name": "미각",
    "location": {
      "lat": 37.5464617,
      "lng": 127.0674547
    },
    "rating": 4.2,
    "address": "서울특별시 화양동 31-1번지 1층 광진구 서울특별시 KR"
  },
  {
    "id": "ChIJlydmPDSlfDURalpzmszpcPc",
    "name": "힘톤씨의 주방",
    "location": {
      "lat": 37.5463174,
      "lng": 127.06766719999999
    },
    "rating": 4.3,
    "address": "서울특별시 광진구 화양동 31-3"
  },
  {
    "id": "ChIJxw58w8OkfDURSIBNj5Dc9G0",
    "name": "정읍식당",
    "location": {
      "lat": 37.5461734,
      "lng": 127.067679
    },
    "rating": null,
    "address": "서울특별시 화양동 31-4번지 1호 필지 1층 광진구 서울특별시 KR"
  },
  {
    "id": "ChIJxw58w8OkfDURy5GhhWBq-Dw",
    "name": "오코노미야키식당하나",
    "location": {
      "lat": 37.5461734,
      "lng": 127.067679
    },
    "rating": 4.6,
    "address": "서울특별시 광진구 능동로13길 111"
  },
  {
    "id": "ChIJp8UI3sOkfDURmQHSl52y-VQ",
    "name": "짱돌",
    "location": {
      "lat": 37.5465839,
      "lng": 127.06718269999999
    },
    "rating": null,
    "address": "서울특별시 화양동 24-34번지 1호 2층 광진구 서울특별시 KR"
  },
  {
    "id": "ChIJbQpA9Z-lfDURh_AcHTlh0s0",
    "name": "초가집사철탕",
    "location": {
      "lat": 37.546636899999996,
      "lng": 127.0670474
    },
    "rating": 4.3,
    "address": "서울특별시 광진구 동일로28길 6"
  },
  {
    "id": "ChIJ3W0y3sOkfDURovJHDcNROhk",
    "name": "나살던고향은",
    "location": {
      "lat": 37.546636899999996,
      "lng": 127.0670474
    },
    "rating": null,
    "address": "서울특별시 화양동 24-2번지 광진구 서울특별시 KR"
  },
  {
    "id": "ChIJU727YcGkfDURjUs-MbdB9gU",
    "name": "철하콴",
    "location": {
      "lat": 37.546589499999996,
      "lng": 127.0667526
    },
    "rating": null,
    "address": "서울특별시 화양동 24-7번지 3층 광진구 서울특별시 KR"
  },
  {
    "id": "ChIJXbm7YcGkfDURA7L672ovA0U",
    "name": "만석당",
    "location": {
      "lat": 37.546589499999996,
      "lng": 127.0667526
    },
    "rating": null,
    "address": "대한민국 서울특별시"
  },
  {
    "id": "ChIJz-FdYMGkfDUR1W8SRhTSDRA",
    "name": "나주곰탕",
    "location": {
      "lat": 37.546719599999996,
      "lng": 127.0667187
    },
    "rating": 3.4,
    "address": "서울특별시 광진구 화양동 24-1"
  },
  {
    "id": "ChIJj5k_fsGkfDURmntm9k1Z0rs",
    "name": "자연 담은 화로",
    "location": {
      "lat": 37.545826999999996,
      "lng": 127.06678550000001
    },
    "rating": 2,
    "address": "서울특별시 광진구 화양동 24-14"
  },
  {
    "id": "ChIJ1bz3tsOkfDUR3co4VdZZtdQ",
    "name": "나비부엌",
    "location": {
      "lat": 37.5454265,
      "lng": 127.068382
    },
    "rating": null,
    "address": "서울특별시 광진구 화양동 33-13번지 1층"
  },
  {
    "id": "ChIJ1bz3tsOkfDURSNNBQRomINI",
    "name": "용가리곱창",
    "location": {
      "lat": 37.5454265,
      "lng": 127.068382
    },
    "rating": null,
    "address": "서울특별시 화양동 33-13번지 1층 광진구 서울특별시 KR"
  }
]
